timestamp,accel_x,accel_y,accel_z,gyro_x,gyro_y,gyro_z,mag_x,mag_y,mag_z,gps_lat,gps_lon,gps_alt,gps_accuracy,gps_speed,gps_course,pressure,altitude,roll,pitch,yaw
258848.393722,-0.01886463,-0.1707921,-9.752219100000001,0.003187,0.000561,0.004307,-47.024551,155.940033,-168.449387,60.187679,24.830165,14.232668,6.165708,-1.0,-1.0,101.160797,0.858754,-0.008974,0.016797,-1.071832
258848.413706,-0.13187583,-0.1704978,-9.86627997,0.004585,0.001071,0.002338,-47.070465,155.904831,-168.205215,60.187679,24.830165,14.232668,6.165708,-1.0,-1.0,101.160797,0.858754,-0.009163,0.01672,-1.071836
258848.413706,-0.13187583,-0.1704978,-9.86627997,0.004585,0.001071,0.002338,-47.070465,155.904831,-168.205215,60.187679,24.830165,14.232668,6.165708,-1.0,-1.0,101.160797,0.858754,-0.009163,0.01672,-1.071836
258848.453674,-0.06840513000000001,-0.15762708,-9.82601973,0.006326,0.006956,0.005597,-47.146179,155.820267,-168.164139,60.187679,24.830165,14.232668,6.165708,-1.0,-1.0,101.160797,0.858754,-0.009116,0.016725,-1.071839
258848.453674,-0.06840513000000001,-0.15762708,-9.82601973,0.006326,0.006956,0.005597,-47.146179,155.820267,-168.164139,60.187679,24.830165,14.232668,6.165708,-1.0,-1.0,101.160797,0.858754,-0.009116,0.016725,-1.071839
258848.493643,-0.08935929000000001,-0.1588239,-9.803564640000001,0.005969,0.004706,0.002526,-46.961258,156.045135,-168.482834,60.187679,24.830165,14.232668,6.165708,-1.0,-1.0,101.160606,0.874608,-0.009084,0.016746,-1.071837
258848.513627,-0.11197134000000002,-0.16630893,-9.844727400000002,0.001969,-0.003639,0.003895,-46.969116,155.977325,-168.370102,60.187679,24.830165,14.232668,6.165708,-1.0,-1.0,101.160606,0.874608,-0.009079,0.016746,-1.071847
258848.533611,-0.059428980000000006,-0.16794720000000002,-9.807302250000001,0.004351,0.002184,0.005784,-47.000229,155.930801,-168.546967,60.187679,24.830165,14.232668,6.165708,-1.0,-1.0,101.160606,0.874608,-0.009046,0.016757,-1.071849
258848.533611,-0.059428980000000006,-0.16794720000000002,-9.807302250000001,0.004351,0.002184,0.005784,-47.000229,155.930801,-168.546967,60.187679,24.830165,14.232668,6.165708,-1.0,-1.0,101.160606,0.874608,-0.009046,0.016757,-1.071849
258848.573579,-0.10687995,-0.17722746,-9.807302250000001,0.002866,0.000554,0.003427,-47.029816,156.110779,-167.994965,60.187679,24.830165,14.232668,6.165708,-1.0,-1.0,101.160606,0.874608,-0.009038,0.016777,-1.071845
258848.573579,-0.10687995,-0.17722746,-9.807302250000001,0.002866,0.000554,0.003427,-47.029816,156.110779,-167.994965,60.187679,24.830165,14.232668,6.165708,-1.0,-1.0,101.160606,0.874608,-0.009038,0.016777,-1.071845
258848.613547,-0.07753824,-0.164808,-9.823626090000001,0.003439,0.000363,0.00474,-47.013763,155.916306,-168.408173,60.187679,24.830165,14.232668,6.165708,-1.0,-1.0,101.160606,0.874608,-0.009048,0.016792,-1.071833
258848.613547,-0.07753824,-0.164808,-9.823626090000001,0.003439,0.000363,0.00474,-47.013763,155.916306,-168.408173,60.187679,24.830165,14.232668,6.165708,-1.0,-1.0,101.160606,0.874608,-0.009048,0.016792,-1.071833
258848.653516,-0.09400923,-0.16151184,-9.81239364,0.001801,-0.000338,0.004926,-46.984451,156.020569,-168.162903,60.187679,24.830165,14.232668,6.165708,-1.0,-1.0,101.160606,0.874608,-0.00905,0.016809,-1.071824
258848.6735,-0.11226564,-0.16810416,-9.823626090000001,0.002038,0.00029,0.003644,-47.113312,156.095963,-168.335312,60.187679,24.830165,14.232668,6.165708,-1.0,-1.0,101.160606,0.874608,-0.009069,0.016787,-1.071836
258848.693484,-0.06990606,-0.15956946,-9.82406754,0.002934,-0.000398,0.005342,-47.022659,155.909836,-168.409485,60.187679,24.830165,14.232668,6.165708,-1.0,-1.0,101.160606,0.874608,-0.00907,0.016793,-1.071826
258848.693484,-0.06990606,-0.15956946,-9.82406754,0.002934,-0.000398,0.005342,-47.022659,155.909836,-168.409485,60.187679,24.830165,14.232668,6.165708,-1.0,-1.0,101.160606,0.874608,-0.00907,0.016793,-1.071826
258848.733452,-0.07978473,-0.16181595000000001,-9.79772769,0.001133,-0.000868,0.003215,-46.943741,156.021072,-168.23201,60.187679,24.830165,14.232668,6.165708,-1.0,-1.0,101.160606,0.874608,-0.009063,0.016788,-1.071809
258848.753436,-0.11465928000000002,-0.164808,-9.82107549,0.002312,0.000507,0.004554,-46.926498,156.063293,-168.083405,60.187679,24.830165,14.232668,6.165708,-1.0,-1.0,101.160606,0.874608,-0.009069,0.016786,-1.071814
258848.773421,-0.09116433,-0.16270866,-9.80535987,0.003516,0.001246,0.003744,-46.824921,156.108261,-168.035904,60.187679,24.830165,14.232668,6.165708,-1.0,-1.0,101.160606,0.874608,-0.00906,0.016783,-1.071811
258848.793405,-0.07844076,-0.16645608,-9.81209934,0.002082,-0.000532,0.0045,-46.82785,156.227417,-167.971832,60.187679,24.830165,14.232668,6.165708,-1.0,-1.0,101.160606,0.874608,-0.009056,0.016783,-1.071811
258848.813389,-0.0811287,-0.1619631,-9.81269775,0.003442,-0.000377,0.005482,-46.664276,156.35379,-168.025085,60.187679,24.830165,14.232668,6.165708,-1.0,-1.0,101.160606,0.874608,-0.009054,0.016774,-1.071809
258848.833373,-0.11181438,-0.16585766999999998,-9.82377324,0.002623,0.000181,0.003596,-46.794769,155.993118,-167.986099,60.187679,24.830165,14.232668,6.165708,-1.0,-1.0,101.160606,0.874608,-0.009055,0.016784,-1.0718
258848.853357,-0.10148445,-0.1505835,-9.80909748,0.00399,0.001723,0.003326,-46.84697,156.254837,-168.021057,60.187679,24.830165,14.232668,6.165708,-1.0,-1.0,101.160606,0.874608,-0.009056,0.016779,-1.071796
258848.873341,-0.06511878,-0.16870257000000002,-9.82466595,0.002211,-3.6e-05,0.004494,-46.779343,156.160751,-168.256409,60.187679,24.830165,14.232668,6.165708,-1.0,-1.0,101.160606,0.874608,-0.009048,0.016776,-1.071793
258848.893326,-0.09040896000000001,-0.15986376000000002,-9.81554265,0.002087,-0.000578,0.003788,-46.880127,156.066238,-168.39447,60.187679,24.830165,14.232668,6.165708,-1.0,-1.0,101.160606,0.874608,-0.009052,0.016769,-1.071785
258848.91331,-0.11001915,-0.15297714,-9.83185668,0.002647,-0.00204,0.00428,-46.89238,156.097031,-168.108429,60.187679,24.830165,14.232668,6.165708,-1.0,-1.0,101.160606,0.874608,-0.009056,0.016769,-1.071781
258848.933295,-0.08712261,-0.16765290000000002,-9.835447140000001,0.003194,0.001309,0.005513,-46.916534,156.087082,-168.278854,60.187679,24.830165,14.232668,6.165708,-1.0,-1.0,101.160606,0.874608,-0.009063,0.016777,-1.071771
258848.953279,-0.08308089000000002,-0.16315992,-9.80805762,0.002859,0.001041,0.003729,-47.085831,156.040329,-168.269638,60.187679,24.830165,14.232668,6.165708,-1.0,-1.0,101.160606,0.874608,-0.009061,0.016778,-1.071769
258848.973263,-0.0868185,-0.16854560999999998,-9.811795230000001,0.003242,0.000328,0.003273,-47.052979,156.063431,-168.255402,60.187679,24.830165,14.232668,6.165708,-1.0,-1.0,101.160606,0.874608,-0.009057,0.016772,-1.071767
258848.993247,-0.08935929000000001,-0.16570071,-9.823626090000001,0.002604,-0.000295,0.005907,-47.036987,156.109726,-168.227737,60.187679,24.830165,14.232668,6.165708,-1.0,-1.0,101.160606,0.874608,-0.009062,0.016773,-1.071777
258849.013231,-0.09220419,-0.14954364,-9.82841337,0.002957,0.000253,0.004622,-47.165222,156.070694,-167.923172,60.187679,24.830165,14.232668,6.165708,-1.0,-1.0,101.160606,0.874608,-0.009067,0.01676,-1.071767
258849.033215,-0.07079877000000001,-0.16136469,-9.81509139,0.00366,-0.000328,0.003177,-47.012878,156.116043,-168.268494,60.187679,24.830165,14.232668,6.165708,-1.0,-1.0,101.160606,0.874608,-0.009064,0.01676,-1.07175
258849.053199,-0.09176274,-0.15657741,-9.811049670000001,0.00425,-0.000343,0.003441,-47.30278,156.043518,-168.201767,60.187679,24.830165,14.232668,6.165708,-1.0,-1.0,101.160606,0.874608,-0.009064,0.016767,-1.071768
258849.093168,-0.08352234000000001,-0.15657741,-9.81194238,0.003447,-0.000175,0.004511,-47.118805,156.147125,-168.269333,60.187679,24.830165,14.232668,6.165708,-1.0,-1.0,101.160606,0.874608,-0.009071,0.01678,-1.07177
258849.093168,-0.08352234000000001,-0.15657741,-9.81194238,0.003447,-0.000175,0.004511,-47.118805,156.147125,-168.269333,60.187679,24.830165,14.232668,6.165708,-1.0,-1.0,101.160606,0.874608,-0.009071,0.01678,-1.07177
258849.113152,-0.08352234000000001,-0.17274429,-9.82796211,0.00287,0.00016,0.003985,-46.978302,156.30304,-168.339493,60.187679,24.830165,14.232668,6.165708,-1.0,-1.0,101.160606,0.874608,-0.009058,0.016786,-1.071769
258849.133136,-0.09805095000000001,-0.15223158,-9.81404172,0.002708,-0.000776,0.003943,-47.288483,156.048477,-168.216171,60.187679,24.830165,14.232668,6.165708,-1.0,-1.0,101.160606,0.874608,-0.009048,0.016769,-1.071782
258849.173104,-0.08248248000000001,-0.15522363,-9.8128449,0.004207,-0.000204,0.002659,-47.047165,156.229599,-168.525528,60.187679,24.830165,14.232668,6.165708,-1.0,-1.0,101.160606,0.874608,-0.009064,0.016752,-1.07179
258849.173104,-0.08248248000000001,-0.15522363,-9.8128449,0.004207,-0.000204,0.002659,-47.047165,156.229599,-168.525528,60.187679,24.830165,14.232668,6.165708,-1.0,-1.0,101.160606,0.874608,-0.009064,0.016752,-1.07179
258849.213072,-0.08951625,-0.16959528000000001,-9.822870720000001,0.004354,9.3e-05,0.003482,-46.992538,156.300064,-168.262741,60.187679,24.830165,14.232668,6.165708,-1.0,-1.0,101.160606,0.874608,-0.009072,0.016771,-1.071784
258849.213072,-0.08951625,-0.16959528000000001,-9.822870720000001,0.004354,9.3e-05,0.003482,-46.992538,156.300064,-168.262741,60.187679,24.830165,14.232668,6.165708,-1.0,-1.0,101.160606,0.874608,-0.009072,0.016771,-1.071784
258849.253041,-0.07065162,-0.1619631,-9.8213796,0.003511,-0.000406,0.00412,-47.112366,156.149048,-168.226898,60.187679,24.830165,14.232668,6.165708,-1.0,-1.0,101.160606,0.874608,-0.00909,0.016766,-1.071771
258849.253041,-0.07065162,-0.1619631,-9.8213796,0.003511,-0.000406,0.00412,-47.112366,156.149048,-168.226898,60.187679,24.830165,14.232668,6.165708,-1.0,-1.0,101.160606,0.874608,-0.00909,0.016766,-1.071771
258849.293009,-0.08592579,-0.16181595000000001,-9.8043102,0.002174,-0.000382,0.003578,-47.051834,156.122742,-168.644547,60.187679,24.830165,14.232668,6.165708,-1.0,-1.0,101.160606,0.874608,-0.009095,0.016757,-1.071756
258849.293009,-0.08592579,-0.16181595000000001,-9.8043102,0.002174,-0.000382,0.003578,-47.051834,156.122742,-168.644547,60.187679,24.830165,14.232668,6.165708,-1.0,-1.0,101.160606,0.874608,-0.009095,0.016757,-1.071756
258849.332977,-0.07933347,-0.16720164,-9.81898596,0.003121,0.000347,0.004836,-47.140991,156.188354,-168.263779,60.187679,24.830165,14.232668,6.165708,-1.0,-1.0,101.160606,0.874608,-0.0091,0.016742,-1.071755
258849.352961,-0.08592579,-0.15328125,-9.820025820000001,0.0029,-4.7e-05,0.003602,-47.095139,156.271164,-168.287399,60.187679,24.830165,14.232668,6.165708,-1.0,-1.0,101.160606,0.874608,-0.009093,0.016741,-1.071753
258849.372945,-0.09759969,-0.17289144,-9.81808344,0.002548,-0.000221,0.001832,-47.032867,156.077606,-168.289581,60.187679,24.830165,14.232668,6.165708,-1.0,-1.0,101.160606,0.874608,-0.0091,0.016737,-1.071745
258849.39293,-0.0836793,-0.15552774,-9.81464013,0.004219,0.000396,0.005386,-47.041901,156.074829,-168.239288,60.187679,24.830165,14.232668,6.165708,-1.0,-1.0,101.160606,0.874608,-0.009094,0.016749,-1.071738
258849.412914,-0.08487612,-0.15732297,-9.82526436,0.003325,-0.0003,0.005046,-47.066025,156.073212,-167.922302,60.187679,24.830165,14.232668,6.165708,-1.0,-1.0,101.160606,0.874608,-0.009101,0.016741,-1.071743
258849.432898,-0.10044459,-0.16720164,-9.819584370000001,0.003965,-0.000249,0.004528,-47.025696,156.234024,-168.208359,60.187679,24.830165,14.232668,6.165708,-1.0,-1.0,101.160606,0.874608,-0.009094,0.016742,-1.071747
258849.452882,-0.09176274,-0.16570071,-9.81344331,0.003361,2.6e-05,0.005877,-47.125366,156.120285,-168.280624,60.187679,24.830165,14.232668,6.165708,-1.0,-1.0,101.160606,0.874608,-0.009104,0.016731,-1.071731
258849.472866,-0.10059174,-0.1704978,-9.834995880000001,0.003386,-0.000236,0.003818,-47.035614,156.064682,-168.260956,60.187679,24.830165,14.232668,6.165708,-1.0,-1.0,101.160606,0.874608,-0.009118,0.016743,-1.071723
258849.49285,-0.07574301000000001,-0.15088761,-9.800121330000001,0.002419,-0.000985,0.003462,-47.007645,156.251068,-168.038925,60.187679,24.830165,14.232668,6.165708,-1.0,-1.0,101.160606,0.874608,-0.009112,0.016745,-1.071724
258849.512834,-0.07933347,-0.16016787000000002,-9.820477080000002,0.00437,0.000249,0.004491,-47.229797,155.975739,-168.34964,60.187679,24.830165,14.232668,6.165708,-1.0,-1.0,101.160606,0.874608,-0.009114,0.016744,-1.071718
258849.532819,-0.09056592000000001,-0.15897105,-9.8245188,0.001815,-0.00021,0.004265,-47.059967,156.149826,-168.155777,60.187679,24.830165,14.232668,6.165708,-1.0,-1.0,101.160606,0.874608,-0.00912,0.016755,-1.071717
258849.552803,-0.07918631999999999,-0.16870257000000002,-9.82241946,0.002851,0.000123,0.001909,-46.921616,155.994995,-168.30835,60.187679,24.830165,14.232668,6.165708,-1.0,-1.0,101.160606,0.874608,-0.009122,0.016744,-1.071718
258849.572787,-0.08292393,-0.16705449,-9.807155100000001,0.002904,0.000109,0.004729,-47.107803,156.083557,-168.237167,60.187679,24.830165,14.232668,6.165708,-1.0,-1.0,101.160522,0.882535,-0.009121,0.016745,-1.071712
258849.592771,-0.08876088000000001,-0.15567489,-9.80865603,0.002793,-0.001405,0.004357,-47.271408,156.088196,-168.193451,60.187679,24.830165,14.232668,6.165708,-1.0,-1.0,101.160522,0.882535,-0.009131,0.016749,-1.071727
258849.612755,-0.07634142000000001,-0.15701886,-9.82032993,0.003654,0.000317,0.003134,-47.06955,156.037857,-168.264252,60.187679,24.830165,14.232668,6.165708,-1.0,-1.0,101.160522,0.882535,-0.009128,0.016739,-1.071733
258849.632739,-0.09849240000000001,-0.16540641000000003,-9.803711790000001,0.002648,-0.000296,0.003978,-47.280029,156.186783,-168.086349,60.187679,24.830165,14.232668,6.165708,-1.0,-1.0,101.160522,0.882535,-0.009132,0.01674,-1.071749
258849.652723,-0.09340101,-0.15897105,-9.81194238,0.003672,-0.000598,0.004585,-47.168549,156.240417,-168.412201,60.187679,24.830165,14.232668,6.165708,-1.0,-1.0,101.160522,0.882535,-0.009135,0.016745,-1.071739
258849.672708,-0.09370512,-0.1651023,-9.82751085,0.002186,0.000164,0.003665,-47.110901,155.970261,-168.409256,60.187679,24.830165,14.232668,6.165708,-1.0,-1.0,101.160522,0.882535,-0.009137,0.016745,-1.071723
258849.692692,-0.09729558,-0.16270866,-9.8159841,0.005262,0.000783,0.002917,-47.270142,156.016388,-168.259888,60.187679,24.830165,14.232668,6.165708,-1.0,-1.0,101.160522,0.882535,-0.009137,0.016744,-1.071732
258849.712676,-0.07424208,-0.1591182,-9.81793629,0.003765,-0.000232,0.004508,-47.369324,155.840378,-167.886353,60.187679,24.830165,14.232668,6.165708,-1.0,-1.0,101.160522,0.882535,-0.00913,0.016751,-1.071737
258849.73266,-0.08397360000000001,-0.16810416,-9.81987867,0.002866,0.000869,0.00415,-47.206284,155.928467,-168.397415,60.187679,24.830165,14.232668,6.165708,-1.0,-1.0,101.160522,0.882535,-0.009125,0.016752,-1.071733
258849.772628,-0.10612458,-0.17244018,-9.82152675,0.003819,-0.000247,0.004707,-47.094681,156.114716,-168.594193,60.187679,24.830165,14.232668,6.165708,-1.0,-1.0,101.160522,0.882535,-0.009127,0.016764,-1.071731
258849.772628,-0.10612458,-0.17244018,-9.82152675,0.003819,-0.000247,0.004707,-47.094681,156.114716,-168.594193,60.187679,24.830165,14.232668,6.165708,-1.0,-1.0,101.160522,0.882535,-0.009127,0.016764,-1.071731
258849.812597,-0.0865242,-0.15358536,-9.83035575,0.002332,0.000431,0.004644,-47.147675,156.048523,-168.27684,60.187679,24.830165,14.232668,6.165708,-1.0,-1.0,101.160522,0.882535,-0.009104,0.016779,-1.071721
258849.812597,-0.0865242,-0.15358536,-9.83035575,0.002332,0.000431,0.004644,-47.147675,156.048523,-168.27684,60.187679,24.830165,14.232668,6.165708,-1.0,-1.0,101.160522,0.882535,-0.009104,0.016779,-1.071721
258849.852565,-0.08712261,-0.16226721000000002,-9.817485030000002,0.003193,0.000777,0.005442,-47.196655,156.043472,-168.42131,60.187679,24.830165,14.232668,6.165708,-1.0,-1.0,101.160522,0.882535,-0.009128,0.016781,-1.071713
258849.852565,-0.08712261,-0.16226721000000002,-9.817485030000002,0.003193,0.000777,0.005442,-47.196655,156.043472,-168.42131,60.187679,24.830165,14.232668,6.165708,-1.0,-1.0,101.160522,0.882535,-0.009128,0.016781,-1.071713
258849.892532,-0.09370512,-0.1619631,-9.832602240000002,0.003735,-0.000138,0.002945,-47.240173,156.039078,-167.934006,60.187679,24.830165,14.232668,6.165708,-1.0,-1.0,101.160522,0.882535,-0.009133,0.016793,-1.071703
258849.892532,-0.09370512,-0.1619631,-9.832602240000002,0.003735,-0.000138,0.002945,-47.240173,156.039078,-167.934006,60.187679,24.830165,14.232668,6.165708,-1.0,-1.0,101.160522,0.882535,-0.009133,0.016793,-1.071703
258849.9325,-0.07184844,-0.16270866,-9.81418887,0.002056,0.001104,0.003385,-47.162262,156.096237,-168.486618,60.187679,24.830165,14.232668,6.165708,-1.0,-1.0,101.160522,0.882535,-0.009132,0.016772,-1.071716
258849.9325,-0.07184844,-0.16270866,-9.81418887,0.002056,0.001104,0.003385,-47.162262,156.096237,-168.486618,60.187679,24.830165,14.232668,6.165708,-1.0,-1.0,101.160522,0.882535,-0.009132,0.016772,-1.071716
258849.972469,-0.08846658,-0.16226721000000002,-9.81074556,0.001485,-0.00108,0.005842,-47.070923,156.080032,-168.386505,60.187679,24.830165,14.232668,6.165708,-1.0,-1.0,101.160522,0.882535,-0.009138,0.016754,-1.071709
258849.972469,-0.08846658,-0.16226721000000002,-9.81074556,0.001485,-0.00108,0.005842,-47.070923,156.080032,-168.386505,60.187679,24.830165,14.232668,6.165708,-1.0,-1.0,101.160522,0.882535,-0.009138,0.016754,-1.071709
258850.012437,-0.08592579,-0.16435674000000003,-9.830807010000001,0.0022,0.000635,0.002774,-47.197723,156.249893,-168.828705,60.187679,24.830165,14.232668,6.165708,-1.0,-1.0,101.160522,0.882535,-0.009121,0.016737,-1.071706
258850.012437,-0.08592579,-0.16435674000000003,-9.830807010000001,0.0022,0.000635,0.002774,-47.197723,156.249893,-168.828705,60.187679,24.830165,14.232668,6.165708,-1.0,-1.0,101.160522,0.882535,-0.009121,0.016737,-1.071706
258850.052405,-0.08352234000000001,-0.15567489,-9.816141060000001,0.001601,-0.000502,0.003584,-47.249634,156.20166,-168.521729,60.187679,24.830165,14.232668,6.165708,-1.0,-1.0,101.160522,0.882535,-0.009121,0.016744,-1.071726
258850.052405,-0.08352234000000001,-0.15567489,-9.816141060000001,0.001601,-0.000502,0.003584,-47.249634,156.20166,-168.521729,60.187679,24.830165,14.232668,6.165708,-1.0,-1.0,101.160522,0.882535,-0.009121,0.016744,-1.071726
258850.092374,-0.08786817,-0.16645608,-9.808803180000002,0.002919,0.000372,0.006367,-47.002411,156.31633,-168.415375,60.187679,24.830165,14.232668,6.165708,-1.0,-1.0,101.160522,0.882535,-0.009136,0.016747,-1.071721
258850.092374,-0.08786817,-0.16645608,-9.808803180000002,0.002919,0.000372,0.006367,-47.002411,156.31633,-168.415375,60.187679,24.830165,14.232668,6.165708,-1.0,-1.0,101.160522,0.882535,-0.009136,0.016747,-1.071721
258850.132342,-0.08921214,-0.17214588000000003,-9.807007950000001,0.002473,-5.2e-05,0.004739,-47.109711,156.08667,-168.151306,60.187679,24.830165,14.232668,6.165708,-1.0,-1.0,101.160522,0.882535,-0.009133,0.01675,-1.071694
258850.152326,-0.08412075,-0.15762708,-9.82152675,0.003859,0.001508,0.003803,-47.043137,156.147736,-168.163269,60.187679,24.830165,14.232668,6.165708,-1.0,-1.0,101.160522,0.882535,-0.009127,0.01675,-1.071683
258850.17231,-0.08457201,-0.16734879000000003,-9.812246490000001,0.003393,-0.000957,0.004537,-47.259308,156.069565,-168.210983,60.187679,24.830165,14.232668,6.165708,-1.0,-1.0,101.160522,0.882535,-0.00913,0.01675,-1.071676
258850.17231,-0.08457201,-0.16734879000000003,-9.812246490000001,0.003393,-0.000957,0.004537,-47.259308,156.069565,-168.210983,60.187679,24.830165,14.232668,6.165708,-1.0,-1.0,101.160522,0.882535,-0.00913,0.01675,-1.071676
258850.212278,-0.08891784,-0.16525926000000002,-9.83798793,0.003562,0.00109,0.00329,-47.199249,156.153687,-168.409119,60.187679,24.830165,14.232668,6.165708,-1.0,-1.0,101.160522,0.882535,-0.009139,0.016745,-1.071681
258850.232263,-0.09056592000000001,-0.15986376000000002,-9.810304109999999,0.003407,-7.5e-05,0.004972,-47.1642,156.180344,-168.525528,60.187679,24.830165,14.232668,6.165708,-1.0,-1.0,101.160522,0.882535,-0.00913,0.016749,-1.071663
258850.252247,-0.07289811,-0.17019369,-9.816582510000002,0.004172,0.001646,0.005491,-47.082138,156.312363,-168.04245,60.187679,24.830165,14.232668,6.165708,-1.0,-1.0,101.160522,0.882535,-0.009135,0.016761,-1.071648
258850.272231,-0.08622009,-0.16854560999999998,-9.81254079,0.00089,0.000239,0.003726,-47.114594,156.144653,-167.798935,60.187679,24.830165,14.232668,6.165708,-1.0,-1.0,101.160522,0.882535,-0.009129,0.016757,-1.071629
258850.292215,-0.09864936,-0.16660323000000002,-9.817033770000002,0.004573,-0.000366,0.00543,-46.93811,156.315567,-168.075043,60.187679,24.830165,14.232668,6.165708,-1.0,-1.0,101.160522,0.882535,-0.009122,0.016751,-1.071635
258850.312199,-0.08203122,-0.15088761,-9.81389457,0.002238,-0.00022,0.003805,-47.126755,156.247375,-167.79921,60.187679,24.830165,14.232668,6.165708,-1.0,-1.0,101.160522,0.882535,-0.009115,0.016756,-1.071628
258850.332183,-0.09714843000000001,-0.16450389,-9.81987867,0.003572,-0.000458,0.005115,-47.222595,156.252716,-168.057999,60.187679,24.830165,14.232668,6.165708,-1.0,-1.0,101.160522,0.882535,-0.009128,0.016759,-1.071642
258850.352168,-0.09100737,-0.16854560999999998,-9.82676529,0.003303,-8.7e-05,0.004279,-47.001358,156.119247,-168.275543,60.187679,24.830165,14.232668,6.165708,-1.0,-1.0,101.160522,0.882535,-0.009123,0.016766,-1.071637
258850.372152,-0.08502327,-0.16974243,-9.80670384,0.003117,-0.000749,0.005991,-47.058533,156.311234,-168.122772,60.187679,24.830165,14.232668,6.165708,-1.0,-1.0,101.160522,0.882535,-0.009128,0.016777,-1.071629
258850.392136,-0.07499745000000001,-0.16734879000000003,-9.82078119,0.003058,0.000106,0.005208,-47.115768,156.083405,-167.885605,60.187679,24.830165,14.232668,6.165708,-1.0,-1.0,101.160522,0.882535,-0.009116,0.016771,-1.071613
258850.41212,-0.09340101,-0.15282999000000003,-9.81090252,0.002296,0.001001,0.003424,-47.157043,156.063171,-168.119339,60.187679,24.830165,14.232668,6.165708,-1.0,-1.0,101.160522,0.882535,-0.009105,0.016767,-1.071617
258850.432104,-0.08007903000000001,-0.16076628,-9.81164808,0.003643,0.000103,0.004721,-47.277054,156.08342,-168.179977,60.187679,24.830165,14.232668,6.165708,-1.0,-1.0,101.160522,0.882535,-0.009103,0.016772,-1.071615
258850.452088,-0.09504909,-0.17139051000000002,-9.816582510000002,0.003782,-0.001368,0.002831,-47.250549,156.150055,-168.296936,60.187679,24.830165,14.232668,6.165708,-1.0,-1.0,101.160522,0.882535,-0.009118,0.01678,-1.071602
258850.492057,-0.09445068,-0.17438256000000002,-9.80626239,0.002792,-0.000268,0.004185,-47.028687,156.327362,-168.22171,60.187679,24.830165,14.232668,6.165708,-1.0,-1.0,101.160522,0.882535,-0.009119,0.016787,-1.071621
258850.492057,-0.09445068,-0.17438256000000002,-9.80626239,0.002792,-0.000268,0.004185,-47.028687,156.327362,-168.22171,60.187679,24.830165,14.232668,6.165708,-1.0,-1.0,101.160522,0.882535,-0.009119,0.016787,-1.071621
258850.532025,-0.09445068,-0.15418377,-9.81373761,0.002507,0.000396,0.003968,-47.127014,156.041824,-168.419998,60.187679,24.830165,14.232668,6.165708,-1.0,-1.0,101.160522,0.882535,-0.009106,0.016802,-1.071614
258850.532025,-0.09445068,-0.15418377,-9.81373761,0.002507,0.000396,0.003968,-47.127014,156.041824,-168.419998,60.187679,24.830165,14.232668,6.165708,-1.0,-1.0,101.160522,0.882535,-0.009106,0.016802,-1.071614
258850.571993,-0.08996751000000001,-0.15342840000000002,-9.82721655,0.001817,-0.001654,0.004299,-47.03537,156.104446,-168.120697,60.187679,24.830165,14.232668,6.165708,-1.0,-1.0,101.160522,0.882535,-0.009112,0.016806,-1.07164
258850.571993,-0.08996751000000001,-0.15342840000000002,-9.82721655,0.001817,-0.001654,0.004299,-47.03537,156.104446,-168.120697,60.187679,24.830165,14.232668,6.165708,-1.0,-1.0,101.160522,0.882535,-0.009112,0.016806,-1.07164
258850.611962,-0.09026181000000001,-0.16390548000000002,-9.82930608,0.003342,-0.000561,0.003019,-47.241486,156.182404,-167.885574,60.187679,24.830165,14.232668,6.165708,-1.0,-1.0,101.160522,0.882535,-0.009107,0.016795,-1.071617
258850.611962,-0.09026181000000001,-0.16390548000000002,-9.82930608,0.003342,-0.000561,0.003019,-47.241486,156.182404,-167.885574,60.187679,24.830165,14.232668,6.165708,-1.0,-1.0,101.160522,0.882535,-0.009107,0.016795,-1.071617
258850.65193,-0.08188407,-0.15806852999999998,-9.80191656,0.003188,-0.001037,0.00403,-47.029694,156.294189,-167.954773,60.187679,24.830165,14.232668,6.165708,-1.0,-1.0,101.1604,0.893105,-0.009128,0.016796,-1.07163
258850.65193,-0.08188407,-0.15806852999999998,-9.80191656,0.003188,-0.001037,0.00403,-47.029694,156.294189,-167.954773,60.187679,24.830165,14.232668,6.165708,-1.0,-1.0,101.1604,0.893105,-0.009128,0.016796,-1.07163
258850.691898,-0.10088604,-0.17198892,-9.811343970000001,0.00351,-0.002024,0.005058,-47.132629,156.203278,-168.20015,60.187679,24.830165,14.232668,6.165708,-1.0,-1.0,101.1604,0.893105,-0.009113,0.01679,-1.071623
258850.691898,-0.10088604,-0.17198892,-9.811343970000001,0.00351,-0.002024,0.005058,-47.132629,156.203278,-168.20015,60.187679,24.830165,14.232668,6.165708,-1.0,-1.0,101.1604,0.893105,-0.009113,0.01679,-1.071623
258850.731867,-0.08352234000000001,-0.16330707,-9.82212516,0.003958,-0.000234,0.00487,-47.111526,156.189606,-168.187302,60.187679,24.830165,14.232668,6.165708,-1.0,-1.0,101.1604,0.893105,-0.009114,0.016808,-1.071604
258850.731867,-0.08352234000000001,-0.16330707,-9.82212516,0.003958,-0.000234,0.00487,-47.111526,156.189606,-168.187302,60.187679,24.830165,14.232668,6.165708,-1.0,-1.0,101.1604,0.893105,-0.009114,0.016808,-1.071604
258850.731867,-0.08352234000000001,-0.16330707,-9.82212516,0.003958,-0.000234,0.00487,-47.111526,156.189606,-168.187302,60.187679,24.830165,14.232668,6.165708,-1.0,-1.0,101.1604,0.893105,-0.009114,0.016808,-1.071604
258850.771835,-0.09400923,-0.15223158,-9.815689800000001,0.004063,-0.0015,0.00442,-47.101242,156.449905,-168.049896,60.187679,24.830165,14.232668,6.165708,-1.0,-1.0,101.1604,0.893105,-0.009115,0.016817,-1.071593
258850.811803,-0.08981055,-0.16330707,-9.80670384,0.002969,-0.000385,0.004424,-47.096786,156.331894,-167.999161,60.187679,24.830165,14.232668,6.165708,-1.0,-1.0,101.1604,0.893105,-0.009129,0.016809,-1.071585
258850.811803,-0.08981055,-0.16330707,-9.80670384,0.002969,-0.000385,0.004424,-47.096786,156.331894,-167.999161,60.187679,24.830165,14.232668,6.165708,-1.0,-1.0,101.1604,0.893105,-0.009129,0.016809,-1.071585
258850.851771,-0.07948062,-0.17004654,-9.820182780000001,0.003693,-0.000605,0.004177,-47.138474,156.103516,-167.968002,60.187679,24.830165,14.232668,6.165708,-1.0,-1.0,101.1604,0.893105,-0.009116,0.016797,-1.071608
258850.851771,-0.07948062,-0.17004654,-9.820182780000001,0.003693,-0.000605,0.004177,-47.138474,156.103516,-167.968002,60.187679,24.830165,14.232668,6.165708,-1.0,-1.0,101.1604,0.893105,-0.009116,0.016797,-1.071608
258850.891741,-0.08667135000000001,-0.16930098,-9.82661814,0.002309,0.001176,0.004118,-47.013245,156.341553,-168.26236,60.187679,24.830165,14.232668,6.165708,-1.0,-1.0,101.1604,0.893105,-0.009114,0.016776,-1.071623
258850.911725,-0.09669717,-0.16495515000000002,-9.8159841,0.003507,0.001958,0.003504,-47.007538,156.341431,-168.176559,60.187679,24.830165,14.232668,6.165708,-1.0,-1.0,101.1604,0.893105,-0.00911,0.016769,-1.071612
258850.931709,-0.07648857,-0.15792138000000003,-9.83290635,0.003074,-0.001221,0.005249,-46.92926,156.328537,-168.162323,60.187679,24.830165,14.232668,6.165708,-1.0,-1.0,101.1604,0.893105,-0.009098,0.016786,-1.071617
258850.951693,-0.08023599000000001,-0.15478218000000002,-9.80760636,0.002902,0.000386,0.004541,-47.027481,156.358414,-167.957077,60.187679,24.830165,14.232668,6.165708,-1.0,-1.0,101.1604,0.893105,-0.009096,0.016777,-1.071625
258850.971678,-0.08726976,-0.16330707,-9.81583695,0.003601,0.000395,0.0055,-46.904709,156.259583,-168.288025,60.187679,24.830165,14.232668,6.165708,-1.0,-1.0,101.1604,0.893105,-0.009086,0.016786,-1.071617
258850.991662,-0.09071307,-0.16301277,-9.83365191,0.003185,0.000209,0.003972,-46.9478,156.241226,-167.906708,60.187679,24.830165,14.232668,6.165708,-1.0,-1.0,101.1604,0.893105,-0.009094,0.01679,-1.071625
258851.011646,-0.08562168,-0.17198892,-9.81987867,0.003546,-0.000487,0.004764,-46.886703,156.456848,-167.926453,60.187679,24.830165,14.232668,6.165708,-1.0,-1.0,101.1604,0.893105,-0.009102,0.016795,-1.071635
258851.03163,-0.08487612,-0.17019369,-9.820928340000002,0.002359,-0.000194,0.003574,-46.98201,156.338669,-168.026108,60.187679,24.830165,14.232668,6.165708,-1.0,-1.0,101.1604,0.893105,-0.009101,0.016792,-1.071632
258851.051614,-0.07454619,-0.16211025,-9.826912440000001,0.003769,0.000234,0.004744,-46.819138,156.249374,-168.187225,60.187679,24.830165,14.232668,6.165708,-1.0,-1.0,101.1604,0.893105,-0.009091,0.016785,-1.071644
258851.071598,-0.08038314,-0.16555356,-9.831552570000001,0.003404,-0.000495,0.003728,-46.912552,156.247177,-168.11441,60.187679,24.830165,14.232668,6.165708,-1.0,-1.0,101.1604,0.893105,-0.009075,0.016787,-1.071664
258851.091582,-0.08756406,-0.16645608,-9.823626090000001,0.002336,0.000665,0.005409,-46.972,156.338425,-168.197357,60.187679,24.830165,14.232668,6.165708,-1.0,-1.0,101.1604,0.893105,-0.009075,0.016802,-1.071666
258851.111567,-0.09071307,-0.15732297,-9.81777933,0.001858,0.001596,0.00477,-46.831421,156.155045,-168.340652,60.187679,24.830165,14.232668,6.165708,-1.0,-1.0,101.1604,0.893105,-0.009062,0.016806,-1.071662
258851.131551,-0.08712261,-0.16780005,-9.811343970000001,0.004121,-0.000218,0.004231,-46.926422,156.059601,-167.974731,60.187679,24.830165,14.232668,6.165708,-1.0,-1.0,101.1604,0.893105,-0.009057,0.016798,-1.071668
258851.131551,-0.08712261,-0.16780005,-9.811343970000001,0.004121,-0.000218,0.004231,-46.926422,156.059601,-167.974731,60.187679,24.830165,14.232668,6.165708,-1.0,-1.0,101.1604,0.893105,-0.009057,0.016798,-1.071668
258851.171519,-0.08442486000000002,-0.16810416,-9.833053500000002,0.001675,-0.000189,0.003818,-46.900009,156.38443,-168.412659,60.187679,24.830165,14.232668,6.165708,-1.0,-1.0,101.1604,0.893105,-0.009053,0.01679,-1.07166
258851.191503,-0.0868185,-0.16435674000000003,-9.822272309999999,0.002792,-0.000972,0.004731,-46.928925,156.127625,-168.333694,60.187679,24.830165,14.232668,6.165708,-1.0,-1.0,101.1604,0.893105,-0.00904,0.016782,-1.07165
258851.211488,-0.08772102000000001,-0.16046217000000002,-9.80222067,0.003119,0.000722,0.00536,-46.925797,156.302246,-168.172501,60.187679,24.830165,14.232668,6.165708,-1.0,-1.0,101.1604,0.893105,-0.00904,0.016776,-1.071648
258851.231472,-0.07993188000000001,-0.17154747,-9.824371650000002,0.00369,0.000451,0.003349,-46.968048,156.148071,-168.273956,60.187679,24.830165,14.232668,6.165708,-1.0,-1.0,101.1604,0.893105,-0.009046,0.016782,-1.071659
258851.251456,-0.07469334000000001,-0.15956946,-9.80895033,0.004002,-0.000872,0.004607,-47.066772,156.139328,-168.167419,60.187679,24.830165,14.232668,6.165708,-1.0,-1.0,101.1604,0.893105,-0.009046,0.016776,-1.071662
258851.27144,-0.08592579,-0.15642045000000002,-9.81628821,0.003757,0.002314,0.004351,-46.888504,156.133804,-167.939651,60.187679,24.830165,14.232668,6.165708,-1.0,-1.0,101.1604,0.893105,-0.009048,0.0168,-1.07166
258851.291424,-0.09370512,-0.15342840000000002,-9.82241946,0.004763,0.000946,0.002958,-46.969467,156.23793,-168.147583,60.187679,24.830165,14.232668,6.165708,-1.0,-1.0,101.1604,0.893105,-0.009049,0.016801,-1.071671
258851.311408,-0.07948062,-0.16884972000000004,-9.81494424,0.003588,0.000279,0.002692,-47.105728,156.218399,-168.163803,60.187679,24.830165,14.232668,6.165708,-1.0,-1.0,101.1604,0.893105,-0.009034,0.016794,-1.071691
258851.331393,-0.09879651,-0.16570071,-9.80655669,0.003455,-0.000962,0.003817,-47.239166,156.165253,-168.647446,60.187679,24.830165,14.232668,6.165708,-1.0,-1.0,101.1604,0.893105,-0.009029,0.016794,-1.0717
258851.371361,-0.07215255000000001,-0.15462522000000004,-9.81628821,0.003635,-0.00041,0.003343,-46.995087,156.091171,-168.48056,60.187679,24.830165,14.232668,6.165708,-1.0,-1.0,101.1604,0.893105,-0.009019,0.016818,-1.071715
258851.371361,-0.07215255000000001,-0.15462522000000004,-9.81628821,0.003635,-0.00041,0.003343,-46.995087,156.091171,-168.48056,60.187679,24.830165,14.232668,6.165708,-1.0,-1.0,101.1604,0.893105,-0.009019,0.016818,-1.071715
258851.411329,-0.08831943,-0.15672456,-9.81269775,0.002373,0.001144,0.005173,-47.12468,156.065201,-168.44458,60.187679,24.830165,14.232668,6.165708,-1.0,-1.0,101.1604,0.893105,-0.009024,0.01683,-1.071726
258851.411329,-0.08831943,-0.15672456,-9.81269775,0.002373,0.001144,0.005173,-47.12468,156.065201,-168.44458,60.187679,24.830165,14.232668,6.165708,-1.0,-1.0,101.1604,0.893105,-0.009024,0.01683,-1.071726
258851.451298,-0.09026181000000001,-0.1562733,-9.81763218,0.003625,-0.000153,0.002835,-46.973175,156.210602,-168.350815,60.187679,24.830165,14.232668,6.165708,-1.0,-1.0,101.1604,0.893105,-0.009025,0.01687,-1.07173
258851.451298,-0.09026181000000001,-0.1562733,-9.81763218,0.003625,-0.000153,0.002835,-46.973175,156.210602,-168.350815,60.187679,24.830165,14.232668,6.165708,-1.0,-1.0,101.1604,0.893105,-0.009025,0.01687,-1.07173
258851.491266,-0.08816247,-0.16301277,-9.82062423,0.002705,0.001488,0.005764,-46.841354,156.397675,-168.522858,60.187679,24.830165,14.232668,6.165708,-1.0,-1.0,101.1604,0.893105,-0.00902,0.016869,-1.071725
258851.491266,-0.08816247,-0.16301277,-9.82062423,0.002705,0.001488,0.005764,-46.841354,156.397675,-168.522858,60.187679,24.830165,14.232668,6.165708,-1.0,-1.0,101.1604,0.893105,-0.00902,0.016869,-1.071725
258851.531234,-0.09011466,-0.16690734000000002,-9.82886463,0.00362,3.6e-05,0.003073,-46.927475,156.224991,-168.39534,60.187679,24.830165,14.232668,6.165708,-1.0,-1.0,101.1604,0.893105,-0.009025,0.016869,-1.071724
258851.531234,-0.09011466,-0.16690734000000002,-9.82886463,0.00362,3.6e-05,0.003073,-46.927475,156.224991,-168.39534,60.187679,24.830165,14.232668,6.165708,-1.0,-1.0,101.1604,0.893105,-0.009025,0.016869,-1.071724
258851.571203,-0.09385227000000002,-0.16914402,-9.817485030000002,0.003495,0.001158,0.004657,-47.088104,156.27301,-168.405121,60.187679,24.830165,14.232668,6.165708,-1.0,-1.0,101.1604,0.893105,-0.009023,0.016864,-1.071739
258851.571203,-0.09385227000000002,-0.16914402,-9.817485030000002,0.003495,0.001158,0.004657,-47.088104,156.27301,-168.405121,60.187679,24.830165,14.232668,6.165708,-1.0,-1.0,101.1604,0.893105,-0.009023,0.016864,-1.071739
258851.611171,-0.08756406,-0.16989939,-9.82901178,0.003657,-0.001904,0.004442,-46.89856,156.131424,-168.172531,60.187679,24.830165,14.232668,6.165708,-1.0,-1.0,101.1604,0.893105,-0.009023,0.016868,-1.071717
258851.611171,-0.08756406,-0.16989939,-9.82901178,0.003657,-0.001904,0.004442,-46.89856,156.131424,-168.172531,60.187679,24.830165,14.232668,6.165708,-1.0,-1.0,101.1604,0.893105,-0.009023,0.016868,-1.071717
258851.65114,-0.07424208,-0.16106057999999998,-9.819584370000001,0.002281,-0.000655,0.004685,-47.031235,156.053894,-168.00441,60.187679,24.830165,14.232668,6.165708,-1.0,-1.0,101.1604,0.893105,-0.009016,0.016846,-1.071741
258851.671124,-0.07903917,-0.16959528000000001,-9.82601973,0.003788,-0.000792,0.003192,-46.89122,156.218933,-168.007309,60.187679,24.830165,14.232668,6.165708,-1.0,-1.0,101.1604,0.893105,-0.009022,0.016843,-1.071743
258851.691108,-0.07739109000000001,-0.16734879000000003,-9.82676529,0.002658,-0.00038,0.003156,-46.977859,156.363831,-168.191849,60.187679,24.830165,14.232668,6.165708,-1.0,-1.0,101.1604,0.893105,-0.009027,0.016845,-1.071745
258851.711092,-0.08292393,-0.16031502,-9.8242245,0.00277,0.001743,0.004804,-47.097778,156.197525,-168.104431,60.187679,24.830165,14.232668,6.165708,-1.0,-1.0,101.1604,0.893105,-0.009021,0.016837,-1.071753
258851.731076,-0.08981055,-0.17662905,-9.82406754,0.004071,0.000601,0.00401,-46.959045,156.2798,-168.130051,60.187679,24.830165,14.232668,6.165708,-1.0,-1.0,101.16021,0.908958,-0.009018,0.016832,-1.071752
258851.75106,-0.08502327,-0.16570071,-9.80909748,0.003087,0.001782,0.006984,-46.984467,156.376968,-167.905792,60.187679,24.830165,14.232668,6.165708,-1.0,-1.0,101.16021,0.908958,-0.00902,0.016845,-1.071742
258851.771045,-0.08487612,-0.16825131000000002,-9.82901178,0.002779,0.001037,0.004276,-47.108475,156.337616,-167.767731,60.187679,24.830165,14.232668,6.165708,-1.0,-1.0,101.16021,0.908958,-0.009007,0.016847,-1.071728
258851.771045,-0.08487612,-0.16825131000000002,-9.82901178,0.002779,0.001037,0.004276,-47.108475,156.337616,-167.767731,60.187679,24.830165,14.232668,6.165708,-1.0,-1.0,101.16021,0.908958,-0.009007,0.016847,-1.071728
258851.811013,-0.07439904,-0.15163317,-9.8159841,0.004245,0.000572,0.003621,-47.158478,156.228378,-167.859863,60.187679,24.830165,14.232668,6.165708,-1.0,-1.0,101.16021,0.908958,-0.009008,0.016852,-1.071714
258851.830997,-0.09729558,-0.16585766999999998,-9.822870720000001,0.003202,-0.000523,0.002505,-47.098877,156.298401,-168.158661,60.18768,24.830163,13.133976,5.97267,-1.0,-1.0,101.16021,0.908958,-0.009013,0.016864,-1.071699
258851.850981,-0.09729558,-0.15418377,-9.82586277,0.003479,0.000861,0.006041,-47.00795,156.377945,-168.093048,60.18768,24.830163,13.133976,5.97267,-1.0,-1.0,101.16021,0.908958,-0.009009,0.01685,-1.071697
258851.870966,-0.09774684000000002,-0.16136469,-9.80775351,0.002355,0.000592,0.003739,-47.160385,156.208359,-168.362259,60.18768,24.830163,13.133976,5.97267,-1.0,-1.0,101.16021,0.908958,-0.009007,0.016848,-1.071693
258851.890949,-0.09011466,-0.15282999000000003,-9.82766781,0.003114,-0.000446,0.004233,-47.131714,156.458405,-167.859894,60.18768,24.830163,13.133976,5.97267,-1.0,-1.0,101.16021,0.908958,-0.009009,0.016854,-1.071687
258851.910933,-0.08172711,-0.17169462000000002,-9.83185668,0.003197,0.000403,0.002574,-47.104309,156.175751,-168.039932,60.18768,24.830163,13.133976,5.97267,-1.0,-1.0,101.16021,0.908958,-0.009002,0.016855,-1.071693
258851.930917,-0.09400923,-0.16944813,-9.81373761,0.004369,0.000952,0.004374,-47.012817,156.372208,-167.995956,60.18768,24.830163,13.133976,5.97267,-1.0,-1.0,101.16021,0.908958,-0.009005,0.016853,-1.071704
258851.970886,-0.09550035000000001,-0.15672456,-9.82661814,0.003937,-0.000717,0.005269,-47.107819,156.299484,-168.160187,60.18768,24.830163,13.133976,5.97267,-1.0,-1.0,101.16021,0.908958,-0.009008,0.016838,-1.071683
258851.970886,-0.09550035000000001,-0.15672456,-9.82661814,0.003937,-0.000717,0.005269,-47.107819,156.299484,-168.160187,60.18768,24.830163,13.133976,5.97267,-1.0,-1.0,101.16021,0.908958,-0.009008,0.016838,-1.071683
258852.010854,-0.0811287,-0.15792138000000003,-9.81344331,0.003997,0.000872,0.003504,-47.128082,156.239899,-168.41008,60.18768,24.830163,13.133976,5.97267,-1.0,-1.0,101.16021,0.908958,-0.00901,0.016838,-1.071673
258852.030838,-0.08157996,-0.15762708,-9.82406754,0.003947,-0.000249,0.004321,-47.162277,156.057037,-168.390884,60.18768,24.830163,13.133976,5.97267,-1.0,-1.0,101.16021,0.908958,-0.009012,0.016841,-1.071661
258852.050822,-0.08547453,-0.17244018,-9.82122264,0.004572,-0.00137,0.004807,-47.349731,156.084122,-168.47789,60.18768,24.830163,13.133976,5.97267,-1.0,-1.0,101.16021,0.908958,-0.009021,0.016843,-1.071663
258852.050822,-0.08547453,-0.17244018,-9.82122264,0.004572,-0.00137,0.004807,-47.349731,156.084122,-168.47789,60.18768,24.830163,13.133976,5.97267,-1.0,-1.0,101.16021,0.908958,-0.009021,0.016843,-1.071663
258852.070807,-0.10044459,-0.17423541,-9.83095416,0.003258,-0.00033,0.003471,-47.210205,156.232498,-168.461288,60.18768,24.830163,13.133976,5.97267,-1.0,-1.0,101.16021,0.908958,-0.009024,0.016851,-1.071663
258852.090791,-0.07753824,-0.16734879000000003,-9.81554265,0.002766,-0.000388,0.004674,-47.210205,156.232498,-168.461288,60.18768,24.830163,13.133976,5.97267,-1.0,-1.0,101.16021,0.908958,-0.009028,0.016841,-1.071668
258852.130759,-0.09295956000000001,-0.15478218000000002,-9.82241946,0.004354,-0.000199,0.004803,-47.12233,156.267609,-168.346268,60.18768,24.830163,13.133976,5.97267,-1.0,-1.0,101.16021,0.908958,-0.009037,0.01682,-1.071649
258852.130759,-0.09295956000000001,-0.15478218000000002,-9.82241946,0.004354,-0.000199,0.004803,-47.12233,156.267609,-168.346268,60.18768,24.830163,13.133976,5.97267,-1.0,-1.0,101.16021,0.908958,-0.009037,0.01682,-1.071649
258852.170728,-0.08981055,-0.16106057999999998,-9.79742358,0.004185,-0.00021,0.004839,-47.211685,156.04776,-168.368027,60.18768,24.830163,13.133976,5.97267,-1.0,-1.0,101.16021,0.908958,-0.009041,0.016822,-1.071645
258852.170728,-0.08981055,-0.16106057999999998,-9.79742358,0.004185,-0.00021,0.004839,-47.211685,156.04776,-168.368027,60.18768,24.830163,13.133976,5.97267,-1.0,-1.0,101.16021,0.908958,-0.009041,0.016822,-1.071645
258852.210696,-0.07903917,-0.1651023,-9.813590460000002,0.004541,-0.000497,0.005285,-47.108307,156.201035,-168.204163,60.18768,24.830163,13.133976,5.97267,-1.0,-1.0,101.16021,0.908958,-0.009037,0.016823,-1.071646
258852.210696,-0.07903917,-0.1651023,-9.813590460000002,0.004541,-0.000497,0.005285,-47.108307,156.201035,-168.204163,60.18768,24.830163,13.133976,5.97267,-1.0,-1.0,101.16021,0.908958,-0.009037,0.016823,-1.071646
258852.250664,-0.07963758,-0.16645608,-9.814787280000001,0.004327,0.001307,0.004738,-47.341202,156.229858,-168.516937,60.18768,24.830163,13.133976,5.97267,-1.0,-1.0,101.16021,0.908958,-0.009025,0.016828,-1.071628
258852.270648,-0.09071307,-0.15418377,-9.824822910000002,0.002733,-0.000993,0.004337,-47.176559,156.243927,-168.360977,60.18768,24.830163,13.133976,5.97267,-1.0,-1.0,101.16021,0.908958,-0.00903,0.016832,-1.071618
258852.290633,-0.0925083,-0.17798283,-9.82241946,0.003223,0.001065,0.00451,-47.062958,156.230453,-168.094406,60.18768,24.830163,13.133976,5.97267,-1.0,-1.0,101.16021,0.908958,-0.00904,0.016839,-1.07162
258852.310617,-0.08427771,-0.15956946,-9.82062423,0.001037,-0.000239,0.005851,-47.279907,156.180862,-168.17186,60.18768,24.830163,13.133976,5.97267,-1.0,-1.0,101.16021,0.908958,-0.009035,0.016842,-1.071612
258852.330601,-0.09520605,-0.16750575,-9.821821049999999,0.003287,0.000253,0.003678,-47.223602,156.153763,-168.430862,60.18768,24.830163,13.133976,5.97267,-1.0,-1.0,101.16021,0.908958,-0.00904,0.016838,-1.071618
258852.350585,-0.08592579,-0.17423541,-9.822870720000001,0.003099,0.000287,0.004298,-47.102356,156.345886,-168.311966,60.18768,24.830163,13.133976,5.97267,-1.0,-1.0,101.16021,0.908958,-0.009038,0.016839,-1.071628
258852.370569,-0.08712261,-0.15851979,-9.815689800000001,0.003239,-0.000851,0.005255,-47.316055,156.113983,-168.028137,60.18768,24.830163,13.133976,5.97267,-1.0,-1.0,101.16021,0.908958,-0.009047,0.016826,-1.071628
258852.390554,-0.08427771,-0.16495515000000002,-9.807155100000001,0.003838,-0.001758,0.005698,-46.992126,156.36702,-168.23111,60.18768,24.830163,13.133976,5.97267,-1.0,-1.0,101.16021,0.908958,-0.00905,0.016837,-1.071609
258852.410538,-0.08128566000000001,-0.16151184,-9.827069400000001,0.003569,0.001915,0.00469,-47.219345,156.455002,-168.070908,60.18768,24.830163,13.133976,5.97267,-1.0,-1.0,101.16021,0.908958,-0.00907,0.016822,-1.071604
258852.410538,-0.08128566000000001,-0.16151184,-9.827069400000001,0.003569,0.001915,0.00469,-47.219345,156.455002,-168.070908,60.18768,24.830163,13.133976,5.97267,-1.0,-1.0,101.16021,0.908958,-0.00907,0.016822,-1.071604
258852.450506,-0.09145863,-0.16734879000000003,-9.81733788,0.003305,0.001064,0.004983,-47.157715,156.469269,-168.17099,60.18768,24.830163,13.133976,5.97267,-1.0,-1.0,101.16021,0.908958,-0.009056,0.01682,-1.07161
258852.47049,-0.08292393,-0.16286562,-9.8245188,0.00308,-0.00031,0.004926,-47.257553,156.284088,-168.004684,60.18768,24.830163,13.133976,5.97267,-1.0,-1.0,101.16021,0.908958,-0.009059,0.016812,-1.071601
258852.490475,-0.07079877000000001,-0.15837263999999998,-9.827814960000001,0.003595,-0.000988,0.004634,-47.188065,156.342926,-168.205948,60.18768,24.830163,13.133976,5.97267,-1.0,-1.0,101.16021,0.908958,-0.009055,0.016801,-1.071606
258852.490475,-0.07079877000000001,-0.15837263999999998,-9.827814960000001,0.003595,-0.000988,0.004634,-47.188065,156.342926,-168.205948,60.18768,24.830163,13.133976,5.97267,-1.0,-1.0,101.16021,0.908958,-0.009055,0.016801,-1.071606
258852.510459,-0.09415638000000001,-0.15986376000000002,-9.8068608,0.003016,0.001447,0.004636,-47.157166,156.226654,-168.318436,60.18768,24.830163,13.133976,5.97267,-1.0,-1.0,101.16021,0.908958,-0.00907,0.016795,-1.071601
258852.570411,-0.08248248000000001,-0.16780005,-9.82197801,0.004222,-0.00056,0.005183,-47.051193,156.392319,-168.167709,60.18768,24.830163,13.133976,5.97267,-1.0,-1.0,101.16021,0.908958,-0.009078,0.016772,-1.071587
258852.570411,-0.08248248000000001,-0.16780005,-9.82197801,0.004222,-0.00056,0.005183,-47.051193,156.392319,-168.167709,60.18768,24.830163,13.133976,5.97267,-1.0,-1.0,101.16021,0.908958,-0.009078,0.016772,-1.071587
258852.61038,-0.09265545000000001,-0.16974243,-9.81299205,0.00369,-0.00124,0.004396,-47.222778,156.212219,-168.205322,60.18768,24.830163,13.133976,5.97267,-1.0,-1.0,101.16021,0.908958,-0.009084,0.016755,-1.071597
258852.61038,-0.09265545000000001,-0.16974243,-9.81299205,0.00369,-0.00124,0.004396,-47.222778,156.212219,-168.205322,60.18768,24.830163,13.133976,5.97267,-1.0,-1.0,101.16021,0.908958,-0.009084,0.016755,-1.071597
258852.650348,-0.08277678,-0.15762708,-9.81628821,0.003014,0.000132,0.005316,-47.010025,156.390778,-168.145065,60.18768,24.830163,13.133976,5.97267,-1.0,-1.0,101.16021,0.908958,-0.00909,0.016749,-1.071595
258852.650348,-0.08277678,-0.15762708,-9.81628821,0.003014,0.000132,0.005316,-47.010025,156.390778,-168.145065,60.18768,24.830163,13.133976,5.97267,-1.0,-1.0,101.16021,0.908958,-0.00909,0.016749,-1.071595
258852.690317,-0.09504909,-0.15866694,-9.81718092,0.002466,-5.2e-05,0.004906,-47.023178,156.178513,-168.17366,60.18768,24.830163,13.133976,5.97267,-1.0,-1.0,101.16021,0.908958,-0.009095,0.01674,-1.071595
258852.710301,-0.07888221,-0.1591182,-9.82062423,0.0037,0.000666,0.003561,-46.948273,156.060043,-168.094666,60.18768,24.830163,13.133976,5.97267,-1.0,-1.0,101.16021,0.908958,-0.009094,0.016731,-1.071613
258852.730285,-0.09669717,-0.1588239,-9.810304109999999,0.002513,0.000602,0.004335,-47.148758,156.171143,-168.121185,60.18768,24.830163,13.133976,5.97267,-1.0,-1.0,101.16021,0.908958,-0.009079,0.016724,-1.071615
258852.730285,-0.09669717,-0.1588239,-9.810304109999999,0.002513,0.000602,0.004335,-47.148758,156.171143,-168.121185,60.18768,24.830163,13.133976,5.97267,-1.0,-1.0,101.16021,0.908958,-0.009079,0.016724,-1.071615
258852.770254,-0.07589016,-0.17064495000000002,-9.822870720000001,0.004597,7.1e-05,0.006111,-47.110657,156.063431,-168.18187,60.18768,24.830163,13.133976,5.97267,-1.0,-1.0,101.16021,0.908958,-0.009083,0.016729,-1.071607
258852.770254,-0.07589016,-0.17064495000000002,-9.822870720000001,0.004597,7.1e-05,0.006111,-47.110657,156.063431,-168.18187,60.18768,24.830163,13.133976,5.97267,-1.0,-1.0,101.16021,0.908958,-0.009083,0.016729,-1.071607
258852.810222,-0.0896634,-0.16046217000000002,-9.811049670000001,0.00309,0.000216,0.003943,-46.93396,156.168945,-168.31781,60.18768,24.830163,13.133976,5.97267,-1.0,-1.0,101.160126,0.916885,-0.009079,0.016713,-1.071605
258852.810222,-0.0896634,-0.16046217000000002,-9.811049670000001,0.00309,0.000216,0.003943,-46.93396,156.168945,-168.31781,60.18768,24.830163,13.133976,5.97267,-1.0,-1.0,101.160126,0.916885,-0.009079,0.016713,-1.071605
258852.85019,-0.07933347,-0.1707921,-9.811500930000001,0.003016,-0.000953,0.003863,-47.035812,156.286743,-168.401062,60.18768,24.830163,13.133976,5.97267,-1.0,-1.0,101.160126,0.916885,-0.009073,0.016705,-1.071621
258852.870175,-0.09176274,-0.16211025,-9.81538569,0.001794,0.000784,0.004276,-46.894531,156.287537,-168.264786,60.18768,24.830163,13.133976,5.97267,-1.0,-1.0,101.160126,0.916885,-0.009067,0.0167,-1.071619
258852.890159,-0.07844076,-0.16780005,-9.819731520000001,0.002442,-5.3e-05,0.005783,-47.022064,156.22435,-168.524292,60.18768,24.830163,13.133976,5.97267,-1.0,-1.0,101.160126,0.916885,-0.009063,0.016683,-1.071619
258852.910143,-0.08562168,-0.15851979,-9.828266220000001,0.003459,3.6e-05,0.004685,-47.042633,156.261902,-168.559586,60.18768,24.830163,13.133976,5.97267,-1.0,-1.0,101.160126,0.916885,-0.009064,0.016668,-1.071616
258852.930127,-0.09864936,-0.164808,-9.81389457,0.004672,-4.7e-05,0.00348,-47.190796,156.222061,-168.315414,60.18768,24.830163,13.133976,5.97267,-1.0,-1.0,101.160126,0.916885,-0.009065,0.016669,-1.071604
258852.950111,-0.08891784,-0.16705449,-9.81404172,0.001835,-0.001297,0.003222,-46.954422,156.424454,-168.17041,60.18768,24.830163,13.133976,5.97267,-1.0,-1.0,101.160126,0.916885,-0.009071,0.016672,-1.071586
258852.970096,-0.08786817,-0.16989939,-9.82975734,0.002631,-0.000285,0.005323,-46.924759,156.401245,-168.517548,60.18768,24.830163,13.133976,5.97267,-1.0,-1.0,101.160126,0.916885,-0.009071,0.01666,-1.071603
258852.99008,-0.08412075,-0.15133887000000001,-9.827363700000001,0.00353,-0.000705,0.003995,-46.950531,156.181625,-168.476974,60.18768,24.830163,13.133976,5.97267,-1.0,-1.0,101.160126,0.916885,-0.009062,0.016663,-1.071598
258853.010064,-0.0865242,-0.16211025,-9.79517709,0.003874,0.000328,0.004882,-46.680481,156.449432,-168.377701,60.18768,24.830163,13.133976,5.97267,-1.0,-1.0,101.160126,0.916885,-0.009072,0.016667,-1.071593
258853.030048,-0.07708698000000001,-0.15942231,-9.819584370000001,0.002579,-0.000577,0.002582,-47.045395,156.289368,-167.992645,60.18768,24.830163,13.133976,5.97267,-1.0,-1.0,101.160126,0.916885,-0.009078,0.016675,-1.071598
258853.050033,-0.09340101,-0.15538058999999999,-9.832307940000002,0.002428,0.000965,0.005682,-46.827423,156.283051,-168.079208,60.18768,24.830163,13.133976,5.97267,-1.0,-1.0,101.160126,0.916885,-0.00907,0.016653,-1.071601
258853.070017,-0.09100737,-0.16705449,-9.80790066,0.004556,0.001994,0.00439,-47.154327,156.302002,-168.373367,60.18768,24.830163,13.133976,5.97267,-1.0,-1.0,101.160126,0.916885,-0.009058,0.016644,-1.071598
258853.090001,-0.09176274,-0.15897105,-9.80581113,0.002041,-0.000685,0.003446,-47.078568,156.293259,-168.120941,60.18768,24.830163,13.133976,5.97267,-1.0,-1.0,101.160126,0.916885,-0.009057,0.016642,-1.071595
258853.109985,-0.08846658,-0.16031502,-9.82975734,0.00241,0.002262,0.002825,-46.955704,156.481415,-168.443939,60.18768,24.830163,13.133976,5.97267,-1.0,-1.0,101.160126,0.916885,-0.009052,0.016634,-1.0716
258853.129969,-0.09205704,-0.1761876,-9.80655669,0.004284,-0.001573,0.003399,-47.168259,156.242676,-168.180389,60.18768,24.830163,13.133976,5.97267,-1.0,-1.0,101.160126,0.916885,-0.009034,0.016621,-1.071622
258853.149954,-0.09355797,-0.15418377,-9.80940159,0.002769,-0.000463,0.002566,-47.291656,156.134201,-168.606323,60.18768,24.830163,13.133976,5.97267,-1.0,-1.0,101.160126,0.916885,-0.009038,0.016624,-1.071622
258853.169938,-0.09145863,-0.15642045000000002,-9.827069400000001,0.001814,-0.001981,0.005389,-47.02034,156.17865,-168.329178,60.18768,24.830163,13.133976,5.97267,-1.0,-1.0,101.160126,0.916885,-0.009037,0.016622,-1.071607
258853.189922,-0.08772102000000001,-0.17274429,-9.815238540000001,0.003067,0.000684,0.004137,-47.075256,156.238571,-168.34433,60.18768,24.830163,13.133976,5.97267,-1.0,-1.0,101.160126,0.916885,-0.009036,0.016618,-1.0716
258853.209906,-0.08292393,-0.15088761,-9.8242245,0.00319,-0.001269,0.003882,-47.234985,156.369553,-168.317215,60.18768,24.830163,13.133976,5.97267,-1.0,-1.0,101.160126,0.916885,-0.009027,0.016618,-1.071601
258853.249875,-0.08308089000000002,-0.16810416,-9.80640954,0.00289,1.3e-05,0.004088,-47.059769,156.307526,-167.947922,60.18768,24.830163,13.133976,5.97267,-1.0,-1.0,101.160126,0.916885,-0.009018,0.016604,-1.0716
258853.249875,-0.08308089000000002,-0.16810416,-9.80640954,0.00289,1.3e-05,0.004088,-47.059769,156.307526,-167.947922,60.18768,24.830163,13.133976,5.97267,-1.0,-1.0,101.160126,0.916885,-0.009018,0.016604,-1.0716
258853.289843,-0.09236115,-0.155979,-9.82272357,0.003904,0.000537,0.004573,-47.037216,156.295181,-168.051788,60.18768,24.830163,13.133976,5.97267,-1.0,-1.0,101.160126,0.916885,-0.009001,0.016597,-1.071598
258853.289843,-0.09236115,-0.155979,-9.82272357,0.003904,0.000537,0.004573,-47.037216,156.295181,-168.051788,60.18768,24.830163,13.133976,5.97267,-1.0,-1.0,101.160126,0.916885,-0.009001,0.016597,-1.071598
258853.329812,-0.0754389,-0.17094906,-9.80640954,0.00483,0.00011,0.005451,-47.062805,156.373642,-168.328796,60.18768,24.830163,13.133976,5.97267,-1.0,-1.0,101.160126,0.916885,-0.009003,0.016598,-1.071596
258853.329812,-0.0754389,-0.17094906,-9.80640954,0.00483,0.00011,0.005451,-47.062805,156.373642,-168.328796,60.18768,24.830163,13.133976,5.97267,-1.0,-1.0,101.160126,0.916885,-0.009003,0.016598,-1.071596
258853.36978,-0.08308089000000002,-0.16660323000000002,-9.837840779999999,0.002774,2.8e-05,0.003707,-47.212067,156.200592,-168.644775,60.18768,24.830163,13.133976,5.97267,-1.0,-1.0,101.160126,0.916885,-0.009006,0.016598,-1.071608
258853.389764,-0.08427771,-0.16705449,-9.810304109999999,0.002914,-0.000248,0.00598,-47.244644,156.200821,-168.686569,60.18768,24.830163,13.133976,5.97267,-1.0,-1.0,101.160126,0.916885,-0.009016,0.016589,-1.07161
258853.389764,-0.08427771,-0.16705449,-9.810304109999999,0.002914,-0.000248,0.00598,-47.244644,156.200821,-168.686569,60.18768,24.830163,13.133976,5.97267,-1.0,-1.0,101.160126,0.916885,-0.009016,0.016589,-1.07161
258853.429733,-0.0928026,-0.16330707,-9.819584370000001,0.002968,-2e-06,0.004973,-47.354553,156.116425,-168.494629,60.18768,24.830163,13.133976,5.97267,-1.0,-1.0,101.160126,0.916885,-0.009006,0.016581,-1.071622
258853.449717,-0.08098155,-0.16406244,-9.80626239,0.002483,-0.000387,0.004855,-47.318527,156.195602,-168.670532,60.18768,24.830163,13.133976,5.97267,-1.0,-1.0,101.160126,0.916885,-0.00901,0.016578,-1.071624
258853.469701,-0.07948062,-0.15866694,-9.81418887,0.00379,0.001214,0.004518,-47.318527,156.195602,-168.670532,60.18768,24.830163,13.133976,5.97267,-1.0,-1.0,101.160126,0.916885,-0.009014,0.016578,-1.071614
258853.489686,-0.08487612,-0.15582204,-9.81045126,0.002655,-0.000767,0.003966,-47.080719,156.385101,-168.518417,60.18768,24.830163,13.133976,5.97267,-1.0,-1.0,101.160126,0.916885,-0.009003,0.016581,-1.071608
258853.50967,-0.0896634,-0.16420959000000002,-9.82676529,0.003477,-0.001384,0.005325,-47.110367,156.473068,-168.335434,60.18768,24.830163,13.133976,5.97267,-1.0,-1.0,101.160126,0.916885,-0.009005,0.016575,-1.071606
258853.529654,-0.08921214,-0.15552774,-9.80670384,0.003946,0.000383,0.004769,-47.277344,156.220032,-168.254562,60.18768,24.830163,13.133976,5.97267,-1.0,-1.0,101.160126,0.916885,-0.009013,0.016574,-1.071627
258853.549638,-0.07679268,-0.15822549000000002,-9.823469130000001,0.004257,-0.000901,0.003933,-47.362305,156.172577,-168.607178,60.18768,24.830163,13.133976,5.97267,-1.0,-1.0,101.160126,0.916885,-0.009008,0.016579,-1.071624
258853.569623,-0.09520605,-0.17198892,-9.82930608,0.002291,-4.5e-05,0.005525,-47.198746,156.056091,-168.689804,60.18768,24.830163,13.133976,5.97267,-1.0,-1.0,101.160126,0.916885,-0.009006,0.016579,-1.071621
258853.589607,-0.08382645000000001,-0.15956946,-9.819133110000001,0.003139,0.000245,0.004522,-47.005325,156.107437,-168.493515,60.18768,24.830163,13.133976,5.97267,-1.0,-1.0,101.160126,0.916885,-0.00901,0.016572,-1.071621
258853.609591,-0.08981055,-0.15777423000000002,-9.826912440000001,0.004786,0.000166,0.004197,-47.211609,156.125626,-168.413574,60.18768,24.830163,13.133976,5.97267,-1.0,-1.0,101.160126,0.916885,-0.009001,0.016579,-1.071604
258853.629575,-0.08592579,-0.16091343000000002,-9.81763218,0.002519,-0.000301,0.005141,-47.122879,156.237915,-168.577057,60.18768,24.830163,13.133976,5.97267,-1.0,-1.0,101.160126,0.916885,-0.009001,0.016573,-1.071614
258853.64956,-0.08532738,-0.1591182,-9.81119682,0.003027,0.001023,0.004646,-47.094849,156.041321,-168.554581,60.18768,24.830163,13.133976,5.97267,-1.0,-1.0,101.160126,0.916885,-0.008993,0.016568,-1.071601
258853.669544,-0.09131148000000001,-0.16420959000000002,-9.82661814,0.003867,0.000579,0.004416,-46.945587,156.008972,-168.549286,60.18768,24.830163,13.133976,5.97267,-1.0,-1.0,101.160126,0.916885,-0.008999,0.016575,-1.071594
258853.689528,-0.09056592000000001,-0.16914402,-9.81194238,0.00212,-0.000259,0.004702,-47.299774,156.053299,-168.415665,60.18768,24.830163,13.133976,5.97267,-1.0,-1.0,101.160126,0.916885,-0.008986,0.016577,-1.0716
258853.689528,-0.09056592000000001,-0.16914402,-9.81194238,0.00212,-0.000259,0.004702,-47.299774,156.053299,-168.415665,60.18768,24.830163,13.133976,5.97267,-1.0,-1.0,101.160126,0.916885,-0.008986,0.016577,-1.0716
258853.729496,-0.08756406,-0.15792138000000003,-9.81269775,0.002629,0.000765,0.005904,-47.242661,156.243225,-168.507645,60.18768,24.830163,13.133976,5.97267,-1.0,-1.0,101.160126,0.916885,-0.008987,0.016565,-1.071601
258853.749481,-0.08935929000000001,-0.16256151,-9.807459210000001,0.004143,0.001172,0.004733,-47.190582,156.176559,-168.114441,60.18768,24.830163,13.133976,5.97267,-1.0,-1.0,101.160126,0.916885,-0.009005,0.01656,-1.071598
258853.769465,-0.08696565,-0.16870257000000002,-9.8245188,0.002659,0.000638,0.005168,-47.413284,156.281021,-168.010696,60.18768,24.830163,13.133976,5.97267,-1.0,-1.0,101.160126,0.916885,-0.009001,0.016541,-1.071592
258853.789449,-0.07784234999999999,-0.16046217000000002,-9.81538569,0.001806,-0.000523,0.002695,-47.132996,156.281494,-168.2659,60.18768,24.830163,13.133976,5.97267,-1.0,-1.0,101.160126,0.916885,-0.008996,0.016539,-1.071595
258853.809433,-0.09325386000000001,-0.16076628,-9.821821049999999,0.003912,-0.000812,0.003606,-47.195816,156.463913,-168.306763,60.18768,24.830163,13.133976,5.97267,-1.0,-1.0,101.160126,0.916885,-0.009002,0.016549,-1.071591
258853.829418,-0.09340101,-0.16705449,-9.811795230000001,0.004447,-0.000811,0.004078,-47.23204,156.36232,-168.334335,60.18768,24.830163,13.133976,5.97267,-1.0,-1.0,101.160126,0.916885,-0.008994,0.016558,-1.071602
258853.849402,-0.08248248000000001,-0.16720164,-9.815689800000001,0.003832,-0.000792,0.005384,-47.034439,156.197693,-168.319077,60.18768,24.830163,13.133976,5.97267,-1.0,-1.0,101.160126,0.916885,-0.009,0.016573,-1.071607
258853.869386,-0.07903917,-0.16974243,-9.81464013,0.001852,-0.000142,0.003605,-47.346268,156.195068,-168.353271,60.18768,24.830163,13.133976,5.97267,-1.0,-1.0,101.160126,0.916885,-0.009004,0.016594,-1.0716
258853.909356,-0.07499745000000001,-0.164808,-9.819731520000001,0.004002,0.000632,0.004627,-47.112335,156.252243,-168.311157,60.18768,24.830163,13.133976,5.97267,-1.0,-1.0,101.159874,0.935381,-0.008991,0.016562,-1.071626
258853.909356,-0.07499745000000001,-0.164808,-9.819731520000001,0.004002,0.000632,0.004627,-47.112335,156.252243,-168.311157,60.18768,24.830163,13.133976,5.97267,-1.0,-1.0,101.159874,0.935381,-0.008991,0.016562,-1.071626
258853.92934,-0.07409493,-0.15612615,-9.80626239,0.003477,0.000184,0.0046,-47.293716,156.22319,-168.494705,60.18768,24.830163,13.133976,5.97267,-1.0,-1.0,101.159874,0.935381,-0.008993,0.016564,-1.071644
258853.969308,-0.09236115,-0.16361118,-9.813139200000002,0.004451,-0.000117,0.004996,-47.117325,156.245651,-168.108215,60.18768,24.830163,13.133976,5.97267,-1.0,-1.0,101.159874,0.935381,-0.009007,0.016568,-1.071639
258853.989293,-0.07334937000000001,-0.1562733,-9.813590460000002,0.003567,0.000158,0.004215,-47.380112,156.169815,-168.274612,60.18768,24.830163,13.133976,5.97267,-1.0,-1.0,101.159874,0.935381,-0.008995,0.016576,-1.071653
258854.009277,-0.09295956000000001,-0.17094906,-9.81404172,0.003161,0.000229,0.004541,-47.411835,156.108566,-168.172699,60.18768,24.830163,13.133976,5.97267,-1.0,-1.0,101.159874,0.935381,-0.008994,0.016584,-1.071677
258854.029261,-0.08067744,-0.15088761,-9.81389457,0.002379,-0.001298,0.003955,-47.251785,156.216797,-168.344421,60.18768,24.830163,13.133976,5.97267,-1.0,-1.0,101.159874,0.935381,-0.008999,0.016582,-1.071676
258854.049245,-0.08667135000000001,-0.16241436,-9.828109260000002,0.002222,0.000694,0.003391,-47.165756,156.247238,-168.414688,60.18768,24.830163,13.133976,5.97267,-1.0,-1.0,101.159874,0.935381,-0.008995,0.016574,-1.071677
258854.06923,-0.08756406,-0.16854560999999998,-9.815238540000001,0.004025,0.000822,0.004261,-47.302811,156.059677,-168.420212,60.18768,24.830163,13.133976,5.97267,-1.0,-1.0,101.159874,0.935381,-0.008985,0.016587,-1.071683
258854.089214,-0.08083440000000001,-0.16151184,-9.822272309999999,0.002985,-0.000527,0.004562,-47.310394,156.174957,-168.600983,60.18768,24.830163,13.133976,5.97267,-1.0,-1.0,101.159874,0.935381,-0.008989,0.016602,-1.071695
