timestamp,accel_x,accel_y,accel_z,gyro_x,gyro_y,gyro_z,mag_x,mag_y,mag_z,gps_lat,gps_lon,gps_alt,gps_accuracy,gps_speed,gps_course,pressure,altitude,roll,pitch,yaw
255567.498465,-9.39865689,-0.08427771,-2.88450297,0.003474,0.001922,0.005031,-110.655228,136.07341,-142.052078,60.18767,24.830157,13.229893,6.557919,-1.0,-1.0,101.170982,0.01057,-1.272866,0.004627,0.095735
255567.538431,-9.386227620000001,-0.045351630000000004,-2.88405171,0.005385,-0.004283,0.003841,-110.958664,136.169815,-141.872986,60.18767,24.830157,13.229893,6.557919,-1.0,-1.0,101.170982,0.01057,-1.27287,0.004619,0.095724
255567.578397,-9.40000086,-0.03847482,-2.8839045600000004,0.00533,1e-06,0.004792,-110.820129,136.141327,-141.660004,60.18767,24.830157,13.229893,6.557919,-1.0,-1.0,101.170982,0.01057,-1.272871,0.004617,0.095717
255567.638347,-9.409428270000001,-0.05718249,-2.86099821,0.000888,0.000377,0.005434,-110.64975,136.169891,-141.462509,60.18767,24.830157,13.229893,6.557919,-1.0,-1.0,101.171074,0.002643,-1.272854,0.004604,0.095734
255567.65833,-9.38548206,-0.01287072,-2.9005227000000002,-0.000765,0.002296,0.00363,-110.766663,136.225266,-141.490112,60.18767,24.830157,13.229893,6.557919,-1.0,-1.0,101.171074,0.002643,-1.272857,0.004596,0.095724
255567.678312,-9.39850974,-0.04295799,-2.89318482,0.002449,0.003029,0.005073,-110.672028,136.110535,-141.334854,60.18767,24.830157,13.229893,6.557919,-1.0,-1.0,101.171074,0.002643,-1.272864,0.004602,0.095704
255567.698295,-9.4106349,-0.09655002,-2.8660896,0.000773,0.001988,0.003967,-110.769028,136.055237,-141.797775,60.18767,24.830157,13.229893,6.557919,-1.0,-1.0,101.171074,0.002643,-1.272849,0.004614,0.095721
255567.718278,-9.39626325,-0.059576130000000005,-2.87312337,0.002611,-0.000622,0.005054,-110.832748,136.148087,-141.620071,60.18767,24.830157,13.229893,6.557919,-1.0,-1.0,101.171074,0.002643,-1.272849,0.004625,0.095725
255567.738262,-9.38398113,-0.02829204,-2.88465012,0.004805,-0.001147,0.003932,-110.972336,136.070862,-141.814835,60.18767,24.830157,13.229893,6.557919,-1.0,-1.0,101.171074,0.002643,-1.272863,0.004618,0.09572
255567.758245,-9.401796090000001,-0.05718249,-2.86639371,0.004393,-0.004524,0.003704,-110.832169,136.110565,-141.719254,60.18767,24.830157,13.229893,6.557919,-1.0,-1.0,101.171074,0.002643,-1.272873,0.004611,0.09573
255567.778228,-9.38548206,-0.06301944000000001,-2.8699841700000004,0.005076,-0.001251,0.0039,-111.043716,136.136627,-141.03833,60.18767,24.830157,13.229893,6.557919,-1.0,-1.0,101.171074,0.002643,-1.27288,0.004629,0.095728
255567.798211,-9.38458935,-0.06301944000000001,-2.9017195200000003,0.002825,-0.002641,0.005389,-111.087143,136.093369,-141.624542,60.18767,24.830157,13.229893,6.557919,-1.0,-1.0,101.171074,0.002643,-1.272855,0.004628,0.095734
255567.818194,-9.40628907,-0.049697460000000006,-2.88615105,0.004821,-0.002879,0.004394,-111.19249,136.277206,-141.89122,60.18767,24.830157,13.229893,6.557919,-1.0,-1.0,101.171074,0.002643,-1.27284,0.004629,0.095722
255567.85816,-9.39700881,-0.04056435,-2.8755170100000003,0.003601,0.002161,0.003764,-110.937256,136.002029,-141.697144,60.18767,24.830157,13.229893,6.557919,-1.0,-1.0,101.171074,0.002643,-1.272825,0.004627,0.095713
255567.85816,-9.39700881,-0.04056435,-2.8755170100000003,0.003601,0.002161,0.003764,-110.937256,136.002029,-141.697144,60.18767,24.830157,13.229893,6.557919,-1.0,-1.0,101.171074,0.002643,-1.272825,0.004627,0.095713
255567.898127,-9.39086775,-0.07035732,-2.88419886,0.002573,0.00181,0.003642,-111.199677,135.85585,-141.77594,60.18767,24.830157,13.229893,6.557919,-1.0,-1.0,101.171074,0.002643,-1.272805,0.004627,0.09573
255567.898127,-9.39086775,-0.07035732,-2.88419886,0.002573,0.00181,0.003642,-111.199677,135.85585,-141.77594,60.18767,24.830157,13.229893,6.557919,-1.0,-1.0,101.171074,0.002643,-1.272805,0.004627,0.09573
255567.938093,-9.38682603,-0.03831786,-2.87432019,0.001639,0.001572,0.005042,-111.342499,136.19194,-141.739517,60.18767,24.830157,13.229893,6.557919,-1.0,-1.0,101.171074,0.002643,-1.272809,0.00463,0.095725
255567.958076,-9.39446802,-0.04475322,-2.8853956800000002,0.004022,-0.001859,0.00511,-111.106018,135.936005,-141.433167,60.18767,24.830157,13.229893,6.557919,-1.0,-1.0,101.171074,0.002643,-1.272816,0.004634,0.095713
255567.978059,-9.381891600000001,-0.06856209,-2.8660896,0.006148,-0.001307,0.004214,-111.106018,135.936005,-141.433167,60.18767,24.830157,13.229893,6.557919,-1.0,-1.0,101.171074,0.002643,-1.272811,0.004626,0.095711
255567.978059,-9.381891600000001,-0.06856209,-2.8660896,0.006148,-0.001307,0.004214,-111.106018,135.936005,-141.433167,60.18767,24.830157,13.229893,6.557919,-1.0,-1.0,101.171074,0.002643,-1.272811,0.004626,0.095711
255568.018025,-9.41152761,-0.04101561,-2.88495423,0.004563,-0.003841,0.005093,-111.112686,136.05748,-141.669968,60.18767,24.830157,13.229893,6.557919,-1.0,-1.0,101.171074,0.002643,-1.272831,0.004636,0.095683
255568.038008,-9.38937663,-0.05089428,-2.8783619099999997,0.003747,-0.001258,0.002638,-111.104858,136.100357,-141.51123,60.18767,24.830157,13.229893,6.557919,-1.0,-1.0,101.171074,0.002643,-1.272831,0.004623,0.09569
255568.057992,-9.3964104,-0.04550859,-2.8759682700000004,0.002119,-0.000948,0.0038,-111.143295,136.007477,-141.617645,60.18767,24.830157,13.229893,6.557919,-1.0,-1.0,101.171074,0.002643,-1.272819,0.004619,0.095686
255568.077975,-9.389523780000001,-0.057633750000000004,-2.88330615,0.001008,0.001657,0.007075,-110.919479,136.168259,-141.707474,60.18767,24.830157,13.229893,6.557919,-1.0,-1.0,101.171074,0.002643,-1.27282,0.004625,0.095681
255568.097958,-9.39102471,-0.0580752,-2.89303767,0.001979,-0.001008,0.004829,-110.923996,135.992401,-141.299286,60.18767,24.830157,13.229893,6.557919,-1.0,-1.0,101.171074,0.002643,-1.272809,0.00461,0.095691
255568.117941,-9.417364560000001,-0.042065280000000004,-2.8741730400000005,0.002245,0.003416,0.00573,-110.96051,135.89151,-141.631149,60.18767,24.830157,13.229893,6.557919,-1.0,-1.0,101.171074,0.002643,-1.272832,0.004599,0.095704
255568.137924,-9.39057345,-0.06017454,-2.8735746300000002,0.001822,0.003578,0.005051,-110.991608,135.919571,-141.14415,60.18767,24.830157,13.229893,6.557919,-1.0,-1.0,101.171074,0.002643,-1.27283,0.004573,0.095733
255568.157907,-9.39416391,-0.045204480000000005,-2.8839045600000004,0.003531,0.00085,0.0046,-110.839432,136.021347,-141.412949,60.18767,24.830157,13.229893,6.557919,-1.0,-1.0,101.171074,0.002643,-1.272838,0.00457,0.095737
255568.17789,-9.389523780000001,-0.05223825,-2.87507556,0.004821,-0.000472,0.007228,-110.951889,135.902802,-141.331863,60.18767,24.830157,13.229893,6.557919,-1.0,-1.0,101.171074,0.002643,-1.272854,0.004579,0.095754
255568.197873,-9.39985371,-0.06481467,-2.8674335699999998,0.003567,-0.002429,0.004608,-111.083847,135.877274,-141.230362,60.18767,24.830157,13.229893,6.557919,-1.0,-1.0,101.171074,0.002643,-1.272849,0.004551,0.095758
255568.217857,-9.414372510000002,-0.03967164,-2.88046125,0.00569,-0.002014,0.004572,-110.90242,136.15889,-141.448776,60.18767,24.830157,13.229893,6.557919,-1.0,-1.0,101.171074,0.002643,-1.272871,0.004542,0.095752
255568.23784,-9.38713014,-0.0489519,-2.8853956800000002,0.003528,-0.003081,0.00439,-110.982208,136.001343,-141.528809,60.18767,24.830157,13.229893,6.557919,-1.0,-1.0,101.171074,0.002643,-1.272859,0.004557,0.095757
255568.257823,-9.40045212,-0.05718249,-2.8913895899999997,0.005335,-0.00265,0.006349,-111.01561,136.158859,-141.462524,60.18767,24.830157,13.229893,6.557919,-1.0,-1.0,101.171074,0.002643,-1.272857,0.004543,0.095753
255568.277806,-9.38458935,-0.051041430000000006,-2.88824058,0.003906,-0.000213,0.004172,-110.943802,135.994644,-141.584457,60.18767,24.830157,13.229893,6.557919,-1.0,-1.0,101.171074,0.002643,-1.272852,0.004541,0.095755
255568.297789,-9.39595914,-0.04595004,-2.8943816399999998,0.001035,7.5e-05,0.004764,-110.686279,136.12532,-141.283844,60.18767,24.830157,13.229893,6.557919,-1.0,-1.0,101.171074,0.002643,-1.272858,0.004547,0.095761
255568.317772,-9.40898682,-0.04595004,-2.8726721100000003,0.002437,0.002117,0.005269,-110.859253,136.255981,-141.453018,60.18767,24.830157,13.229893,6.557919,-1.0,-1.0,101.171074,0.002643,-1.272859,0.004543,0.095762
255568.337755,-9.40150179,-0.0580752,-2.88450297,0.00015,0.002188,0.005755,-110.747406,136.225403,-141.322372,60.18767,24.830157,13.229893,6.557919,-1.0,-1.0,101.171074,0.002643,-1.272869,0.004533,0.095779
255568.357739,-9.393114240000001,-0.05538726,-2.88883899,0.001208,0.003715,0.003435,-110.741409,136.192917,-141.422592,60.18767,24.830157,13.229893,6.557919,-1.0,-1.0,101.171074,0.002643,-1.272875,0.004521,0.095777
255568.377722,-9.37844829,-0.039965940000000005,-2.8877991300000003,0.003648,0.000272,0.005428,-110.805801,136.40683,-141.330063,60.18767,24.830157,13.229893,6.557919,-1.0,-1.0,101.171074,0.002643,-1.272881,0.00453,0.09577
255568.397705,-9.39506643,-0.04266369,-2.87656668,0.004735,-0.000771,0.001789,-110.89949,136.084869,-141.162491,60.18767,24.830157,13.229893,6.557919,-1.0,-1.0,101.171074,0.002643,-1.272895,0.004532,0.095774
255568.417688,-9.3875814,-0.046107,-2.8946759400000004,0.005519,-0.000429,0.003739,-110.827972,136.137909,-141.146179,60.18767,24.830157,13.229893,6.557919,-1.0,-1.0,101.171074,0.002643,-1.272912,0.004535,0.095766
255568.457654,-9.38727729,-0.04984461,-2.88704376,0.005995,-0.002155,0.003894,-111.009842,136.12999,-140.959534,60.18767,24.830157,13.229893,6.557919,-1.0,-1.0,101.171074,0.002643,-1.272904,0.004548,0.095733
255568.457654,-9.38727729,-0.04984461,-2.88704376,0.005995,-0.002155,0.003894,-111.009842,136.12999,-140.959534,60.18767,24.830157,13.229893,6.557919,-1.0,-1.0,101.171074,0.002643,-1.272904,0.004548,0.095733
255568.497621,-9.397312920000001,-0.04550859,-2.89033992,0.002217,-0.002076,0.003256,-110.958878,135.997559,-141.25914,60.18767,24.830157,13.229893,6.557919,-1.0,-1.0,101.171074,0.002643,-1.272884,0.004567,0.095727
255568.517604,-9.39850974,-0.039367530000000005,-2.8865925000000003,0.00234,0.001235,0.003862,-111.017792,136.239227,-141.368729,60.18767,24.830157,13.229893,6.557919,-1.0,-1.0,101.171074,0.002643,-1.272873,0.004569,0.095713
255568.537587,-9.38638458,-0.05283666000000001,-2.8720737,0.002055,0.001824,0.004443,-111.189026,136.137634,-141.069244,60.18767,24.830157,13.229893,6.557919,-1.0,-1.0,101.171074,0.002643,-1.272862,0.004568,0.095719
255568.55757,-9.393565500000001,-0.06182262000000001,-2.8915367400000003,0.001208,0.002122,0.003095,-111.098816,136.138748,-141.194244,60.18767,24.830157,13.229893,6.557919,-1.0,-1.0,101.171074,0.002643,-1.272861,0.004573,0.095725
255568.577553,-9.3878757,-0.051796800000000004,-2.88435582,0.00208,0.000383,0.003954,-111.147842,135.9617,-141.40683,60.18767,24.830157,13.229893,6.557919,-1.0,-1.0,101.171074,0.002643,-1.27287,0.004575,0.095734
255568.597536,-9.40464099,-0.047902230000000004,-2.88419886,0.004737,0.001753,0.004853,-110.978317,136.074615,-141.168015,60.18767,24.830157,13.229893,6.557919,-1.0,-1.0,101.171074,0.002643,-1.272875,0.004562,0.095737
255568.617519,-9.40314987,-0.049697460000000006,-2.883159,0.003904,-0.000511,0.006581,-111.079529,135.849991,-141.257965,60.18767,24.830157,13.229893,6.557919,-1.0,-1.0,101.171074,0.002643,-1.272873,0.004561,0.095747
255568.637503,-9.39581199,-0.04879494,-2.89213515,0.004434,-0.001537,0.003671,-111.187744,136.054489,-141.267426,60.18767,24.830157,13.229893,6.557919,-1.0,-1.0,101.171074,0.002643,-1.272885,0.004554,0.095736
255568.657486,-9.3967047,-0.05328792,-2.88883899,0.005778,-0.002789,0.003437,-111.187744,136.054489,-141.267426,60.18767,24.830157,13.229893,6.557919,-1.0,-1.0,101.171074,0.002643,-1.272858,0.00456,0.09573
255568.67747,-9.39057345,-0.04311495,-2.8856997900000003,0.00498,-0.002209,0.003267,-111.094376,135.955444,-141.480942,60.18767,24.830157,13.229893,6.557919,-1.0,-1.0,101.171127,0.0,-1.272851,0.00457,0.09573
255568.697453,-9.381744450000001,-0.05883057,-2.88615105,0.004804,-0.000641,0.003898,-111.113327,135.871964,-141.144943,60.18767,24.830157,13.229893,6.557919,-1.0,-1.0,101.171127,0.0,-1.27285,0.004577,0.095718
255568.717436,-9.40059927,-0.04685256,-2.8877991300000003,0.001308,-0.001376,0.004423,-111.205704,135.863724,-141.071945,60.18767,24.830157,13.229893,6.557919,-1.0,-1.0,101.171127,0.0,-1.272846,0.004575,0.095713
255568.737419,-9.389229480000001,-0.0666099,-2.88195237,0.002394,0.002402,0.004733,-110.814453,136.138809,-141.239166,60.18767,24.830157,13.229893,6.557919,-1.0,-1.0,101.171127,0.0,-1.272843,0.004571,0.09571
255568.757403,-9.3907206,-0.05134554,-2.87866602,0.001181,0.001602,0.004146,-110.805115,136.118591,-141.21521,60.18767,24.830157,13.229893,6.557919,-1.0,-1.0,101.171127,0.0,-1.272828,0.004567,0.095721
255568.777386,-9.39550788,-0.04864779,-2.90351475,0.001483,0.003033,0.003586,-110.74968,136.034363,-141.441666,60.18767,24.830157,13.229893,6.557919,-1.0,-1.0,101.171127,0.0,-1.272833,0.004587,0.095722
255568.797369,-9.37605465,-0.05912487,-2.8818052200000004,0.002047,0.001382,0.00501,-111.000137,135.721115,-141.49794,60.18767,24.830157,13.229893,6.557919,-1.0,-1.0,101.171127,0.0,-1.272835,0.0046,0.095722
255568.817352,-9.425153700000001,-0.034874550000000004,-2.87671383,0.003119,0.000802,0.00283,-110.731659,135.89769,-141.649734,60.18767,24.830157,13.229893,6.557919,-1.0,-1.0,101.171127,0.0,-1.272859,0.00461,0.095726
255568.837335,-9.39446802,-0.03622833,-2.87701794,0.00514,0.001352,0.003977,-110.550476,135.824051,-141.673676,60.18767,24.830157,13.229893,6.557919,-1.0,-1.0,101.171127,0.0,-1.272867,0.00462,0.095729
255568.857318,-9.39026934,-0.08876088000000001,-2.9038090500000004,0.005164,-0.000925,0.003261,-110.473297,136.027557,-141.492615,60.18767,24.830157,13.229893,6.557919,-1.0,-1.0,101.171127,0.0,-1.272846,0.004632,0.095734
255568.877302,-9.39686166,-0.05223825,-2.87163225,0.006141,-0.003716,0.004902,-110.492783,135.77623,-141.207581,60.18767,24.830157,13.229893,6.557919,-1.0,-1.0,101.171127,0.0,-1.272849,0.004634,0.095725
255568.897285,-9.37529928,-0.03517866,-2.8749186,0.00409,-0.001833,0.002879,-110.684525,135.720856,-141.297913,60.18767,24.830157,13.229893,6.557919,-1.0,-1.0,101.171127,0.0,-1.272845,0.00463,0.095724
255568.917268,-9.38593332,-0.02410317,-2.8984233600000002,0.002811,-0.004069,0.004759,-110.491165,135.762787,-141.522781,60.18767,24.830157,13.229893,6.557919,-1.0,-1.0,101.171127,0.0,-1.272842,0.004646,0.095707
255568.937251,-9.39476232,-0.063765,-2.8699841700000004,0.004695,-9.2e-05,0.003771,-110.660141,135.873978,-141.296005,60.18767,24.830157,13.229893,6.557919,-1.0,-1.0,101.171127,0.0,-1.272849,0.004652,0.095704
255568.957234,-9.38877822,-0.063765,-2.8678848300000004,0.001211,0.001365,0.002698,-110.788467,135.702271,-141.303406,60.18767,24.830157,13.229893,6.557919,-1.0,-1.0,101.171127,0.0,-1.272814,0.004682,0.095715
255568.977217,-9.399108150000002,-0.054190440000000006,-2.8918408500000004,0.000631,0.003209,0.006846,-110.62973,135.875443,-141.501129,60.18767,24.830157,13.229893,6.557919,-1.0,-1.0,101.171127,0.0,-1.272814,0.004705,0.095693
255568.9972,-9.39595914,-0.02215098,-2.88285489,0.001567,0.002419,0.004089,-110.551651,135.819489,-141.21637,60.18767,24.830157,13.229893,6.557919,-1.0,-1.0,101.171127,0.0,-1.272812,0.004679,0.095708
255569.017184,-9.40643622,-0.034727400000000005,-2.87103384,0.002358,0.002098,0.003711,-110.510803,135.916336,-141.06459,60.18767,24.830157,13.229893,6.557919,-1.0,-1.0,101.171127,0.0,-1.272833,0.004677,0.095715
255569.037167,-9.394016760000001,-0.07244685000000001,-2.89213515,0.003409,0.001433,0.004616,-110.61264,135.819077,-141.302109,60.18767,24.830157,13.229893,6.557919,-1.0,-1.0,101.171127,0.0,-1.272826,0.004685,0.095712
255569.05715,-9.38428524,-0.055230299999999996,-2.88704376,0.004104,-0.002228,0.004029,-110.605499,135.903275,-141.489441,60.18767,24.830157,13.229893,6.557919,-1.0,-1.0,101.171127,0.0,-1.272825,0.004691,0.095725
255569.077133,-9.397607220000001,-0.03922038,-2.87926443,0.004252,-0.00266,0.005635,-110.666046,135.745056,-141.339203,60.18767,24.830157,13.229893,6.557919,-1.0,-1.0,101.171127,0.0,-1.27286,0.004704,0.095729
255569.097116,-9.38832696,-0.04475322,-2.8945287900000003,0.005683,-0.001341,0.003916,-110.766891,135.811859,-141.063583,60.18767,24.830157,13.229893,6.557919,-1.0,-1.0,101.171127,0.0,-1.272841,0.004701,0.095716
255569.137083,-9.38114604,-0.06151851,-2.88195237,0.003246,-0.001149,0.004057,-110.759872,135.823837,-141.349442,60.18767,24.830157,13.229893,6.557919,-1.0,-1.0,101.171127,0.0,-1.272835,0.004719,0.095711
255569.157066,-9.40284576,-0.06675705000000001,-2.8759682700000004,0.002627,-0.002353,0.004124,-110.530914,135.78389,-140.969101,60.18767,24.830157,13.229893,6.557919,-1.0,-1.0,101.171127,0.0,-1.272812,0.004723,0.095711
255569.177049,-9.41227317,-0.028439190000000003,-2.8877991300000003,0.000813,0.001919,0.005715,-110.587479,135.668167,-141.385788,60.18767,24.830157,13.229893,6.557919,-1.0,-1.0,101.171127,0.0,-1.272839,0.00473,0.095703
255569.177049,-9.41227317,-0.028439190000000003,-2.8877991300000003,0.000813,0.001919,0.005715,-110.587479,135.668167,-141.385788,60.18767,24.830157,13.229893,6.557919,-1.0,-1.0,101.171127,0.0,-1.272839,0.00473,0.095703
255569.217015,-9.5151114,-0.15223158,-2.86414722,-0.000345,-0.019484,0.007216,-110.542267,135.595352,-141.46875,60.18767,24.830157,13.229893,6.557919,-1.0,-1.0,101.171127,0.0,-1.272832,0.004734,0.095711
255569.236999,-9.302254020000001,-0.00688662,-2.9174351400000003,0.000195,0.014703,0.004043,-110.702957,135.705917,-141.539948,60.18767,24.830157,13.229893,6.557919,-1.0,-1.0,101.171127,0.0,-1.272877,0.00473,0.095647
255569.256982,-9.398804040000002,-0.00733788,-2.8966281300000003,0.003879,0.000156,-0.000497,-110.642746,135.616241,-141.697159,60.18767,24.830157,13.229893,6.557919,-1.0,-1.0,101.171127,0.0,-1.272893,0.004701,0.095644
255569.276965,-9.413175690000001,-0.0580752,-2.85052113,0.004087,-0.003728,0.008753,-110.814941,135.438675,-141.740707,60.18767,24.830157,13.229893,6.557919,-1.0,-1.0,101.171127,0.0,-1.272924,0.004757,0.095633
255569.296948,-9.3386295,-0.060772950000000006,-2.86833609,0.006575,0.003083,0.004769,-110.595932,135.459763,-141.841049,60.18767,24.830157,13.229893,6.557919,-1.0,-1.0,101.171127,0.0,-1.272921,0.004742,0.095623
255569.316931,-9.41033079,-0.05837931,-2.91413898,0.006767,-0.004424,0.00174,-110.713303,135.500656,-141.865234,60.18767,24.830157,13.229893,6.557919,-1.0,-1.0,101.171127,0.0,-1.272885,0.004751,0.095646
255569.336914,-9.381440340000001,-0.06615864,-2.88764217,0.002566,-0.005842,0.008377,-110.713303,135.500656,-141.865234,60.18767,24.830157,13.229893,6.557919,-1.0,-1.0,101.171127,0.0,-1.272866,0.00477,0.095673
255569.356898,-9.40838841,-0.04625415,-2.85202206,0.004097,-0.000819,0.002434,-110.722488,135.557526,-141.554779,60.18767,24.830157,13.229893,6.557919,-1.0,-1.0,101.171127,0.0,-1.272905,0.004738,0.09567
255569.376881,-9.41152761,-0.03143124,-2.89902177,0.001895,0.000329,0.004648,-110.643692,135.745804,-141.647781,60.18767,24.830157,13.229893,6.557919,-1.0,-1.0,101.171127,0.0,-1.272895,0.004746,0.095655
255569.396864,-9.339227910000002,-0.07184844,-2.9216240100000004,-0.000195,-0.002025,0.005674,-110.821655,135.574142,-141.631363,60.18767,24.830157,13.229893,6.557919,-1.0,-1.0,101.171127,0.0,-1.272848,0.00476,0.095639
255569.416847,-9.433080180000001,-0.08007903000000001,-2.85680934,0.002071,0.002636,0.004112,-110.674911,135.721725,-141.696136,60.18767,24.830157,13.229893,6.557919,-1.0,-1.0,101.171127,0.0,-1.272903,0.004742,0.095624
255569.43683,-9.43532667,-0.0145188,-2.89063422,0.000956,0.004108,0.003528,-110.828445,135.695084,-141.497879,60.18767,24.830157,13.229893,6.557919,-1.0,-1.0,101.171127,0.0,-1.272919,0.004748,0.09564
255569.456814,-9.32396355,0.00928026,-2.91099978,0.001705,0.002998,0.008375,-110.856903,135.692032,-141.793076,60.18767,24.830157,13.229893,6.557919,-1.0,-1.0,101.171127,0.0,-1.272884,0.00477,0.095622
255569.476797,-9.398804040000002,-0.06481467,-2.85351318,0.002793,0.001517,0.002794,-110.985229,135.407822,-141.986282,60.18767,24.830157,13.229893,6.557919,-1.0,-1.0,101.171127,0.0,-1.272869,0.004738,0.095646
255569.49678,-9.40074642,-0.07903917,-2.89648098,0.006868,-1e-06,0.007149,-110.900604,135.762604,-141.869675,60.18767,24.830157,13.229893,6.557919,-1.0,-1.0,101.171127,0.0,-1.272892,0.004765,0.095641
255569.516763,-9.37979226,-0.08248248000000001,-2.86773768,0.002853,-0.003119,0.004661,-111.013626,135.557281,-141.717987,60.18767,24.830157,13.229893,6.557919,-1.0,-1.0,101.171127,0.0,-1.272895,0.004747,0.095692
255569.536746,-9.43293303,-0.09026181000000001,-2.85142365,0.000756,-0.002271,0.005689,-111.028778,135.768784,-141.956833,60.18767,24.830157,13.229893,6.557919,-1.0,-1.0,101.171127,0.0,-1.272898,0.00473,0.095676
255569.556729,-9.334440630000001,0.02529999,-2.96009883,0.008158,-0.00133,0.002321,-110.964188,135.485565,-141.92572,60.18767,24.830157,13.229893,6.557919,-1.0,-1.0,101.171127,0.0,-1.272934,0.004708,0.095582
255569.576713,-9.393114240000001,-0.00748503,-2.90126826,0.004161,-0.002468,0.003352,-110.518814,135.627945,-141.912338,60.18767,24.830157,13.229893,6.557919,-1.0,-1.0,101.171127,0.0,-1.272909,0.004723,0.095615
255569.596696,-9.42276006,-0.051041430000000006,-2.8681889400000005,-0.000589,-0.007036,0.002079,-110.637039,135.402039,-141.779434,60.18767,24.830157,13.229893,6.557919,-1.0,-1.0,101.171127,0.0,-1.272916,0.004753,0.0956
255569.616679,-9.37949796,-0.05328792,-2.90785077,0.006378,0.00722,0.007128,-110.625397,135.356461,-141.84697,60.18767,24.830157,13.229893,6.557919,-1.0,-1.0,101.171127,0.0,-1.272935,0.004769,0.095562
255569.656645,-9.40674033,-0.028144890000000002,-2.88225648,-0.002366,0.00059,0.002809,-110.597824,135.518173,-142.031158,60.18767,24.830157,13.229893,6.557919,-1.0,-1.0,101.171127,0.0,-1.272912,0.00481,0.095637
255569.656645,-9.40674033,-0.028144890000000002,-2.88225648,-0.002366,0.00059,0.002809,-110.597824,135.518173,-142.031158,60.18767,24.830157,13.229893,6.557919,-1.0,-1.0,101.171127,0.0,-1.272912,0.00481,0.095637
255569.696611,-9.40628907,-0.04161402,-2.8894374000000003,0.001223,-0.001289,0.002622,-110.893509,135.847824,-141.802551,60.18767,24.830157,13.229893,6.557919,-1.0,-1.0,101.171127,0.0,-1.272945,0.004831,0.095627
255569.716594,-9.39610629,-0.03322647,-2.90036574,0.002828,-0.000787,0.00441,-110.804413,135.732544,-141.444962,60.18767,24.830157,13.229893,6.557919,-1.0,-1.0,101.171127,0.0,-1.272972,0.004854,0.095597
255569.736577,-9.38234286,-0.05732964000000001,-2.87342748,0.009355,0.001956,0.00567,-110.522446,136.014099,-141.259674,60.18767,24.830157,13.229893,6.557919,-1.0,-1.0,101.171127,0.0,-1.27298,0.004849,0.095604
255569.75656,-9.40314987,-0.025898400000000002,-2.89318482,0.003078,-0.005559,0.003133,-110.449905,136.019608,-141.306885,60.18767,24.830157,13.229893,6.557919,-1.0,-1.0,101.171127,0.0,-1.272942,0.004838,0.095664
255569.776544,-9.337736790000001,-0.0344331,-2.92057434,0.00619,-0.000961,0.006152,-110.509918,135.676498,-141.127213,60.18767,24.830157,13.229893,6.557919,-1.0,-1.0,101.171127,0.0,-1.272966,0.004856,0.095618
255569.776544,-9.337736790000001,-0.0344331,-2.92057434,0.00619,-0.000961,0.006152,-110.509918,135.676498,-141.127213,60.18767,24.830157,13.229893,6.557919,-1.0,-1.0,101.171127,0.0,-1.272966,0.004856,0.095618
255569.81651,-9.42740019,-0.03907323000000001,-2.8776163500000003,2.3e-05,-0.002047,0.004131,-110.668167,136.031235,-141.332764,60.18767,24.830157,13.229893,6.557919,-1.0,-1.0,101.171127,0.0,-1.272971,0.00484,0.09568
255569.836493,-9.35943651,-0.01362609,-2.91877911,0.003454,0.000656,0.004497,-110.527359,136.27121,-141.316193,60.18767,24.830157,13.229893,6.557919,-1.0,-1.0,101.171127,0.0,-1.272977,0.00484,0.095622
255569.856476,-9.40389543,-0.09160578000000001,-2.8978249500000004,0.003191,0.001154,0.004843,-110.697342,136.152954,-141.382828,60.18767,24.830157,13.229893,6.557919,-1.0,-1.0,101.171127,0.0,-1.272961,0.004828,0.095641
255569.87646,-9.42215184,-0.04250673,-2.8544157,-0.002108,0.00052,0.003582,-110.563812,136.099274,-141.243683,60.18767,24.830157,13.229893,6.557919,-1.0,-1.0,101.171127,0.0,-1.272972,0.004851,0.095655
255569.896443,-9.36318393,-0.0375723,-2.87237781,0.002504,0.005376,0.001951,-110.596405,136.199326,-141.361465,60.18767,24.830157,13.229893,6.557919,-1.0,-1.0,101.171127,0.0,-1.273001,0.00486,0.095597
255569.896443,-9.36318393,-0.0375723,-2.87237781,0.002504,0.005376,0.001951,-110.596405,136.199326,-141.361465,60.18767,24.830157,13.229893,6.557919,-1.0,-1.0,101.171127,0.0,-1.273001,0.00486,0.095597
255569.896443,-9.36318393,-0.0375723,-2.87237781,0.002504,0.005376,0.001951,-110.596405,136.199326,-141.361465,60.18767,24.830157,13.229893,6.557919,-1.0,-1.0,101.171127,0.0,-1.273001,0.00486,0.095597
255569.956392,-9.38727729,-0.07559586,-2.8789603200000005,0.005173,-0.001658,0.00609,-110.756302,136.00235,-141.282654,60.18767,24.830157,13.229893,6.557919,-1.0,-1.0,101.171127,0.0,-1.27299,0.004897,0.095644
255569.976376,-9.40674033,-0.050590170000000004,-2.8885446900000002,0.004925,-0.003557,0.005969,-110.824402,135.85112,-141.262589,60.18767,24.830157,13.229893,6.557919,-1.0,-1.0,101.171127,0.0,-1.272991,0.004884,0.095661
255569.996359,-9.40643622,-0.01062423,-2.8827077400000003,0.005345,-0.004526,0.00316,-110.795044,135.982513,-141.353851,60.18767,24.830157,13.229893,6.557919,-1.0,-1.0,101.171127,0.0,-1.273007,0.00488,0.095646
255570.016342,-9.40449384,-0.12843252,-2.87103384,0.00261,-0.003543,0.004824,-110.795044,135.982513,-141.353851,60.18767,24.830157,13.229893,6.557919,-1.0,-1.0,101.171127,0.0,-1.273002,0.004882,0.095643
255570.036325,-9.36677439,-0.06675705000000001,-2.8957256100000004,-0.000273,-0.000748,0.003203,-110.781754,135.798248,-141.364822,60.18767,24.830157,13.229893,6.557919,-1.0,-1.0,101.171127,0.0,-1.273007,0.004866,0.095605
255570.056308,-9.38398113,-0.00179523,-2.89887462,0.000932,-0.004152,0.004778,-110.977585,135.898575,-141.241196,60.18767,24.830157,13.229893,6.557919,-1.0,-1.0,101.171127,0.0,-1.273012,0.004844,0.095542
255570.076292,-9.42859701,-0.00464013,-2.8755170100000003,-7.4e-05,0.004655,0.003226,-110.888611,135.739822,-141.487991,60.18767,24.830157,13.229893,6.557919,-1.0,-1.0,101.171127,0.0,-1.273021,0.004841,0.095514
255570.096275,-9.35150022,-0.08876088000000001,-2.90635965,0.00583,0.008552,0.005554,-110.59964,135.323822,-141.711899,60.18767,24.830157,13.229893,6.557919,-1.0,-1.0,101.171127,0.0,-1.272999,0.004865,0.095508
255570.116258,-9.4949028,-0.10523187,-2.8886918400000003,0.009484,0.01149,0.008375,-110.281509,135.286301,-141.409653,60.18767,24.830157,13.229893,6.557919,-1.0,-1.0,101.171127,0.0,-1.272958,0.004874,0.095592
255570.136241,-9.34042473,-0.18172044,-2.85800616,-0.001925,-0.001403,0.003672,-110.079422,135.49057,-141.404007,60.18767,24.830157,13.229893,6.557919,-1.0,-1.0,101.171127,0.0,-1.272928,0.004873,0.095637
255570.156224,-9.37710432,-0.13367106,-2.88824058,-0.003757,0.005602,-0.00353,-110.313507,135.358948,-141.423325,60.18767,24.830157,13.229893,6.557919,-1.0,-1.0,101.171127,0.0,-1.272833,0.004873,0.095538
255570.176208,-9.42814575,-0.04819653,-2.9180335500000005,-0.008547,-0.001725,-0.000541,-110.525757,135.735062,-141.373306,60.18767,24.830157,13.229893,6.557919,-1.0,-1.0,101.171127,0.0,-1.27285,0.004938,0.095338
255570.196191,-9.42276006,0.049246200000000004,-2.9966214600000005,-0.00828,0.007945,-0.001818,-110.6763,136.039597,-141.264221,60.18767,24.830157,13.229893,6.557919,-1.0,-1.0,101.171127,0.0,-1.272839,0.004978,0.095041
255570.216174,-9.33279255,0.14759145,-2.95665552,-0.002733,-0.005944,-0.000909,-110.595932,136.648712,-140.85611,60.18767,24.830157,13.229893,6.557919,-1.0,-1.0,101.171127,0.0,-1.272856,0.005018,0.094722
255570.25614,-9.386678880000002,-0.11256975000000001,-2.8382488200000004,0.010734,0.001981,0.006012,-110.444931,136.41806,-140.768433,60.18767,24.830157,13.229893,6.557919,-1.0,-1.0,101.171127,0.0,-1.272932,0.004959,0.094587
255570.25614,-9.386678880000002,-0.11256975000000001,-2.8382488200000004,0.010734,0.001981,0.006012,-110.444931,136.41806,-140.768433,60.18767,24.830157,13.229893,6.557919,-1.0,-1.0,101.171127,0.0,-1.272932,0.004959,0.094587
255570.296107,-9.32844672,-0.06301944000000001,-2.9334450600000004,-0.000754,0.003305,0.004804,-110.515961,136.21347,-140.663223,60.18767,24.830157,13.229893,6.557919,-1.0,-1.0,101.171127,0.0,-1.272887,0.004928,0.094662
255570.296107,-9.32844672,-0.06301944000000001,-2.9334450600000004,-0.000754,0.003305,0.004804,-110.515961,136.21347,-140.663223,60.18767,24.830157,13.229893,6.557919,-1.0,-1.0,101.171127,0.0,-1.272887,0.004928,0.094662
255570.336073,-9.45433845,0.00299205,-2.8463322600000005,0.00604,0.001191,0.010317,-110.581985,136.591507,-140.92746,60.18767,24.830157,13.229893,6.557919,-1.0,-1.0,101.171127,0.0,-1.272962,0.004884,0.094703
255570.336073,-9.45433845,0.00299205,-2.8463322600000005,0.00604,0.001191,0.010317,-110.581985,136.591507,-140.92746,60.18767,24.830157,13.229893,6.557919,-1.0,-1.0,101.171127,0.0,-1.272962,0.004884,0.094703
255570.37604,-9.382784310000002,-0.14699304000000002,-2.94393195,0.002449,0.005744,0.000274,-110.362305,136.403839,-140.703934,60.18767,24.830157,13.229893,6.557919,-1.0,-1.0,101.171127,0.0,-1.272893,0.004828,0.094813
255570.396023,-9.32485626,-0.12529332,-2.9238705,0.003771,-0.004149,0.003217,-110.327927,136.219986,-140.579788,60.18767,24.830157,13.229893,6.557919,-1.0,-1.0,101.171127,0.0,-1.272829,0.00485,0.094792
255570.416006,-9.40344417,0.025751250000000003,-2.9017195200000003,0.002853,-0.007568,0.001442,-110.217453,136.356155,-140.611465,60.18767,24.830157,13.229893,6.557919,-1.0,-1.0,101.171127,0.0,-1.272915,0.00489,0.09475
255570.416006,-9.40344417,0.025751250000000003,-2.9017195200000003,0.002853,-0.007568,0.001442,-110.217453,136.356155,-140.611465,60.18767,24.830157,13.229893,6.557919,-1.0,-1.0,101.171127,0.0,-1.272915,0.00489,0.09475
255570.455973,-9.47005407,0.024848730000000003,-2.87237781,0.001578,-0.005849,0.007474,-110.137085,136.477921,-140.638794,60.18767,24.830157,13.229893,6.557919,-1.0,-1.0,101.171127,0.0,-1.272943,0.004922,0.09477
255570.455973,-9.47005407,0.024848730000000003,-2.87237781,0.001578,-0.005849,0.007474,-110.137085,136.477921,-140.638794,60.18767,24.830157,13.229893,6.557919,-1.0,-1.0,101.171127,0.0,-1.272943,0.004922,0.09477
255570.495939,-9.45374004,-0.06945480000000001,-2.87926443,0.006571,-0.003729,0.006327,-110.116302,136.231033,-140.427994,60.18767,24.830157,13.229893,6.557919,-1.0,-1.0,101.171127,0.0,-1.272912,0.004893,0.094746
255570.515922,-9.41721741,-0.15582204,-2.84318325,0.00307,0.000799,0.00924,-110.314026,136.256195,-140.308319,60.18767,24.830157,13.229893,6.557919,-1.0,-1.0,101.171127,0.0,-1.272925,0.004894,0.094851
255570.535905,-9.325454670000001,-0.10657584,-2.91488454,-0.004098,0.000141,0.002502,-110.17807,136.217728,-140.572449,60.18767,24.830157,13.229893,6.557919,-1.0,-1.0,101.171127,0.0,-1.272897,0.004847,0.094878
255570.555889,-9.46332441,0.045204480000000005,-2.8851013800000005,-0.002286,-0.005309,0.004829,-110.125717,136.10405,-140.369843,60.18767,24.830157,13.229893,6.557919,-1.0,-1.0,101.171127,0.0,-1.272949,0.00485,0.094779
255570.575872,-9.41556933,0.10478061,-2.9087532900000004,0.009011,0.002158,-0.000681,-110.024261,135.862701,-140.270905,60.18767,24.830157,13.229893,6.557919,-1.0,-1.0,101.171127,0.0,-1.272986,0.004827,0.094752
255570.575872,-9.41556933,0.10478061,-2.9087532900000004,0.009011,0.002158,-0.000681,-110.024261,135.862701,-140.270905,60.18767,24.830157,13.229893,6.557919,-1.0,-1.0,101.171127,0.0,-1.272986,0.004827,0.094752
255570.615838,-9.266182650000001,-0.20312586,-2.9532122100000002,0.013071,0.002086,0.005578,-110.030884,136.093338,-140.311951,60.18767,24.830157,13.229893,6.557919,-1.0,-1.0,101.171127,0.0,-1.27284,0.004868,0.094864
255570.635821,-9.417962970000001,-0.027095220000000003,-2.8607039100000002,0.002447,-0.010431,-0.00366,-110.215302,136.017731,-140.233124,60.18767,24.830157,13.229893,6.557919,-1.0,-1.0,101.171127,0.0,-1.27281,0.004914,0.094965
255570.655805,-9.472898970000001,0.08935929000000001,-2.79723321,0.004905,0.001468,0.008282,-110.060364,135.916092,-140.450912,60.18767,24.830157,13.229893,6.557919,-1.0,-1.0,101.171127,0.0,-1.272896,0.005014,0.094889
255570.675788,-9.3762018,0.03248091,-2.88300204,0.008543,0.009496,0.010936,-109.981247,135.896072,-140.68837,60.18767,24.830157,13.229893,6.557919,-1.0,-1.0,101.171127,0.0,-1.272812,0.004939,0.094946
255570.695771,-9.43532667,-0.10687995,-2.9303058600000003,0.004461,0.001052,0.005099,-109.981247,135.896072,-140.68837,60.18767,24.830157,13.229893,6.557919,-1.0,-1.0,101.171127,0.0,-1.272636,0.004844,0.095063
255570.715754,-9.38383398,-0.14669874000000002,-2.93360202,0.008729,0.006934,0.012045,-110.248596,135.737793,-140.448975,60.18767,24.830157,13.229893,6.557919,-1.0,-1.0,101.171127,0.0,-1.272577,0.004828,0.095121
255570.735738,-9.401354640000001,-0.10523187,-2.86518708,0.004559,0.004946,-0.004474,-110.129654,135.460785,-140.509537,60.18767,24.830157,13.229893,6.557919,-1.0,-1.0,101.171127,0.0,-1.272469,0.004773,0.095266
255570.755721,-9.42740019,0.12020193000000001,-2.92551858,-0.002658,-0.003988,0.007726,-110.393753,135.425934,-141.162354,60.18767,24.830157,13.229893,6.557919,-1.0,-1.0,101.171127,0.0,-1.272445,0.00488,0.095206
255570.775704,-9.39476232,0.19654335,-2.8445370300000006,0.002377,0.002994,0.005236,-110.410629,135.599945,-141.183945,60.18767,24.830157,13.229893,6.557919,-1.0,-1.0,101.171127,0.0,-1.272546,0.004853,0.095148
255570.795687,-9.350460360000001,0.09340101,-3.1202568900000003,0.019247,0.009369,0.012421,-110.876572,135.583374,-141.551193,60.18767,24.830157,13.229893,6.557919,-1.0,-1.0,101.171127,0.0,-1.272514,0.004849,0.09522
255570.81567,-9.14224311,-0.10882233000000001,-3.17729223,0.035262,-0.001993,0.022469,-110.89209,135.575134,-141.26033,60.18767,24.830157,13.229893,6.557919,-1.0,-1.0,101.171127,0.0,-1.272357,0.004752,0.095652
255570.835654,-9.290884230000001,-0.10597743000000001,-3.10409982,0.033026,-0.036038,0.014718,-110.287811,134.897964,-141.679947,60.18767,24.830157,13.229893,6.557919,-1.0,-1.0,101.171104,0.0,-1.272544,0.004638,0.096343
255570.855637,-9.41243013,0.17693316,-3.02955363,0.045817,-0.042713,0.024057,-110.645584,134.468414,-142.202377,60.18767,24.830157,13.229893,6.557919,-1.0,-1.0,101.171104,0.0,-1.273243,0.00458,0.096991
255570.87562,-9.286087140000001,0.19609209,-2.9068011000000005,0.062019,-0.023149,0.034882,-111.38501,134.233444,-142.640503,60.18767,24.830157,13.229893,6.557919,-1.0,-1.0,101.171104,0.0,-1.273981,0.004448,0.097982
255570.895603,-9.35090181,0.1070271,-2.8349526600000003,0.04038,-0.119422,0.018103,-111.880493,133.86882,-143.039093,60.18767,24.830157,13.229893,6.557919,-1.0,-1.0,101.171104,0.0,-1.274748,0.004193,0.099148
255570.915586,-9.28773522,-0.02080701,-2.73091761,0.000982,-0.159239,0.006755,-112.516693,133.686356,-142.943878,60.18767,24.830157,13.229893,6.557919,-1.0,-1.0,101.171104,0.0,-1.277014,0.004131,0.099867
255570.93557,-9.52978716,-0.11001915,-2.59320483,-0.037874,-0.1593,-0.004563,-113.758392,133.63353,-142.94072,60.18767,24.830157,13.229893,6.557919,-1.0,-1.0,101.171104,0.0,-1.280142,0.004084,0.099708
255570.955553,-9.53996013,-0.15118191,-2.53183347,-0.062396,-0.136623,-0.017034,-114.44928,134.143433,-143.088074,60.18767,24.830157,13.229893,6.557919,-1.0,-1.0,101.171104,0.0,-1.283347,0.004042,0.098803
255570.975536,-9.5148171,0.045802890000000006,-2.70966915,-0.099977,-0.1143,-0.022613,-115.290695,135.078201,-142.320618,60.18767,24.830157,13.229893,6.557919,-1.0,-1.0,101.171104,0.0,-1.28606,0.004038,0.097316
255571.015503,-9.379341,0.22603221,-2.82986127,-0.065964,-0.164051,-0.017291,-116.388199,136.456955,-141.626862,60.18767,24.830157,13.229893,6.557919,-1.0,-1.0,101.171104,0.0,-1.291174,0.004138,0.093114
255571.035486,-9.198218970000001,-0.12319398000000001,-2.84109372,-0.036962,-0.169592,-0.000911,-115.801163,137.58728,-140.183701,60.18767,24.830157,13.229893,6.557919,-1.0,-1.0,101.171104,0.0,-1.294394,0.004153,0.091737
255571.055469,-9.516612330000001,-0.36883638,-2.77508223,-0.013263,-0.175827,0.003622,-116.016525,138.013245,-140.025375,60.18767,24.830157,13.229893,6.557919,-1.0,-1.0,101.171104,0.0,-1.297822,0.00404,0.090996
255571.075452,-9.43802442,-0.47810997000000005,-2.46866688,-0.006234,-0.185076,0.00811,-114.864944,137.618988,-139.520187,60.18767,24.830157,13.229893,6.557919,-1.0,-1.0,101.171104,0.0,-1.301316,0.003993,0.090695
255571.095435,-9.42619356,-0.32766381,-2.26898433,-0.007454,-0.236538,0.005072,-114.279739,138.085266,-138.900848,60.18767,24.830157,13.229893,6.557919,-1.0,-1.0,101.171104,0.0,-1.305091,0.00389,0.09052
255571.115419,-9.42470244,-0.40026762,-2.2836502800000003,-0.01586,-0.302987,0.00185,-114.839783,138.302246,-138.607056,60.18767,24.830157,13.229893,6.557919,-1.0,-1.0,101.171104,0.0,-1.309835,0.003836,0.090284
255571.135402,-9.25226226,-0.26435007,-2.42391366,-0.031638,-0.351775,-0.014747,-115.171417,137.834991,-138.826111,60.18767,24.830157,13.229893,6.557919,-1.0,-1.0,101.171104,0.0,-1.316046,0.003878,0.089805
255571.155385,-9.49595247,-0.16974243,-2.65263381,-0.041185,-0.327703,0.011023,-115.040329,137.812256,-138.614105,60.18767,24.830157,13.229893,6.557919,-1.0,-1.0,101.171104,0.0,-1.323106,0.00403,0.089025
255571.175368,-9.5874111,-0.08576883000000002,-2.70262557,-0.042482,-0.378581,0.003681,-114.872009,137.807068,-138.335144,60.18767,24.830157,13.229893,6.557919,-1.0,-1.0,101.171104,0.0,-1.330037,0.003758,0.088112
255571.195352,-9.39985371,-0.10896948000000001,-2.45864106,-0.049274,-0.3877,-6e-06,-115.272232,137.750992,-138.053345,60.18767,24.830157,13.229893,6.557919,-1.0,-1.0,101.171104,0.0,-1.337466,0.003524,0.087147
255571.215335,-9.49879737,0.11211849,-2.40235128,-0.065922,-0.384557,0.002438,-115.629837,137.480591,-138.059097,60.18767,24.830157,13.229893,6.557919,-1.0,-1.0,101.171104,0.0,-1.345259,0.003325,0.085998
255571.235318,-9.47485116,0.25102809000000004,-2.25131652,-0.056758,-0.389672,0.004259,-115.973679,137.518219,-137.69487,60.18767,24.830157,13.229893,6.557919,-1.0,-1.0,101.171104,0.0,-1.352994,0.003101,0.084683
255571.255301,-9.50209353,0.10896948000000001,-2.0341231200000003,-0.012173,-0.414928,0.00754,-116.19574,137.820099,-137.0298,60.18767,24.830157,13.229893,6.557919,-1.0,-1.0,101.171104,0.0,-1.360872,0.002893,0.083696
255571.275284,-9.52065405,-0.26180928000000003,-2.0910015,0.027284,-0.456266,0.021442,-116.105896,137.948105,-136.390778,60.18767,24.830157,13.229893,6.557919,-1.0,-1.0,101.171104,0.0,-1.369245,0.00275,0.083539
255571.295268,-9.69713595,-0.08067744,-2.01884895,0.041711,-0.494232,0.051857,-116.240784,137.829773,-136.028397,60.18767,24.830157,13.229893,6.557919,-1.0,-1.0,101.171104,0.0,-1.378526,0.002434,0.084063
255571.315251,-9.708957000000002,0.00494424,-1.8309972600000002,0.06272,-0.483606,0.068943,-116.322495,137.938965,-135.904633,60.18767,24.830157,13.229893,6.557919,-1.0,-1.0,101.171104,0.0,-1.388401,0.001591,0.085022
255571.335234,-9.8415882,-0.01002582,-1.53326376,0.088496,-0.415062,0.071994,-116.548615,138.08287,-135.208557,60.18767,24.830157,13.229893,6.557919,-1.0,-1.0,101.171104,0.0,-1.397806,0.000574,0.086473
255571.335234,-9.8415882,-0.01002582,-1.53326376,0.088496,-0.415062,0.071994,-116.548615,138.08287,-135.208557,60.18767,24.830157,13.229893,6.557919,-1.0,-1.0,101.171104,0.0,-1.397806,0.000574,0.086473
255571.335234,-9.8415882,-0.01002582,-1.53326376,0.088496,-0.415062,0.071994,-116.548615,138.08287,-135.208557,60.18767,24.830157,13.229893,6.557919,-1.0,-1.0,101.171104,0.0,-1.397806,0.000574,0.086473
255571.375201,-9.8242245,-0.02798793,-1.36501245,0.115787,-0.377241,0.133407,-116.667542,138.223297,-134.612274,60.18767,24.830157,13.229893,6.557919,-1.0,-1.0,101.171104,0.0,-1.413688,-0.002135,0.090592
255571.415167,-9.81643536,0.08337519,-1.19526021,0.18442,-0.357665,0.199112,-116.664154,138.411713,-134.298218,60.18767,24.830157,13.229893,6.557919,-1.0,-1.0,101.171104,0.0,-1.428438,-0.007349,0.096901
255571.43515,-9.72587925,0.008534700000000001,-1.2220611300000002,0.187229,-0.378884,0.232784,-116.391693,138.64772,-133.768738,60.18767,24.830157,13.229893,6.557919,-1.0,-1.0,101.171104,0.0,-1.435643,-0.010766,0.101086
255571.455133,-9.67049199,0.10733121,-1.18494009,0.166415,-0.432816,0.250751,-116.084152,139.003494,-133.222443,60.18767,24.830157,13.229893,6.557919,-1.0,-1.0,101.171104,0.0,-1.443367,-0.014912,0.1053
255571.475117,-9.53771364,0.1995354,-1.06682769,0.148282,-0.47877,0.220137,-116.048386,139.178864,-132.388596,60.18767,24.830157,13.229893,6.557919,-1.0,-1.0,101.171104,0.0,-1.45208,-0.019287,0.109112
255571.4951,-9.643848030000001,0.23036823,-0.96594165,0.141431,-0.509662,0.184974,-116.020355,139.358444,-131.930664,60.18767,24.830157,13.229893,6.557919,-1.0,-1.0,101.171104,0.0,-1.461654,-0.023108,0.112463
255571.515083,-9.7288713,0.26509562999999997,-0.7262931600000001,0.129386,-0.524372,0.172545,-115.940277,139.374954,-131.304825,60.18767,24.830157,13.229893,6.557919,-1.0,-1.0,101.171104,0.0,-1.471703,-0.026358,0.115534
255571.535066,-9.791292330000001,0.19369845,-0.58394025,0.098363,-0.552511,0.167687,-115.856216,139.257538,-130.543152,60.18767,24.830157,13.229893,6.557919,-1.0,-1.0,101.171104,0.0,-1.482182,-0.029478,0.118222
255571.55505,-9.81164808,0.35102142000000003,-0.44996508,0.058716,-0.549484,0.159926,-115.506577,139.269684,-130.32312,60.18767,24.830157,13.229893,6.557919,-1.0,-1.0,101.171104,0.0,-1.493062,-0.032579,0.120266
255571.575033,-9.823174830000001,0.38904498,-0.44757144,0.026073,-0.536498,0.150553,-115.731415,139.205338,-130.120605,60.18767,24.830157,13.229893,6.557919,-1.0,-1.0,101.171104,0.0,-1.503907,-0.035561,0.121435
255571.595016,-9.76628664,0.30371760000000003,-0.39502908,0.00168,-0.538242,0.149867,-115.750946,139.62291,-129.209854,60.18767,24.830157,13.229893,6.557919,-1.0,-1.0,101.171104,0.0,-1.514552,-0.038414,0.121974
255571.614999,-10.029891150000001,0.29653668000000005,-0.42855966000000006,-0.001826,-0.53582,0.12703,-114.607651,139.681778,-128.52742,60.18767,24.830157,13.229893,6.557919,-1.0,-1.0,101.171104,0.0,-1.525291,-0.041308,0.122075
255571.654966,-9.85715667,0.61701957,-0.13666311,-0.012573,-0.507368,0.119451,-112.699875,138.497116,-127.799286,60.18767,24.830157,13.229893,6.557919,-1.0,-1.0,101.171104,0.0,-1.546448,-0.045971,0.121964
255571.654966,-9.85715667,0.61701957,-0.13666311,-0.012573,-0.507368,0.119451,-112.699875,138.497116,-127.799286,60.18767,24.830157,13.229893,6.557919,-1.0,-1.0,101.171104,0.0,-1.546448,-0.045971,0.121964
255571.694932,-9.661506030000002,0.62689824,-0.04146687,0.014398,-0.52017,0.148378,-111.863861,137.610382,-127.696136,60.18767,24.830157,13.229893,6.557919,-1.0,-1.0,101.171104,0.0,-1.566544,-0.050861,0.121638
255571.694932,-9.661506030000002,0.62689824,-0.04146687,0.014398,-0.52017,0.148378,-111.863861,137.610382,-127.696136,60.18767,24.830157,13.229893,6.557919,-1.0,-1.0,101.171104,0.0,-1.566544,-0.050861,0.121638
255571.734899,-10.058036040000001,0.69979635,0.16315992,0.05463,-0.57506,0.122278,-111.933456,137.211334,-126.658035,60.18767,24.830157,13.229893,6.557919,-1.0,-1.0,101.171104,0.0,-1.587974,-0.056005,0.122823
255571.734899,-10.058036040000001,0.69979635,0.16315992,0.05463,-0.57506,0.122278,-111.933456,137.211334,-126.658035,60.18767,24.830157,13.229893,6.557919,-1.0,-1.0,101.171104,0.0,-1.587974,-0.056005,0.122823
255571.774865,-10.26505647,0.5665765500000001,0.42901092,0.051456,-0.602727,0.100573,-112.300812,137.535706,-126.063583,60.18767,24.830157,13.229893,6.557919,-1.0,-1.0,101.171104,0.0,-1.610891,-0.060328,0.124716
255571.794848,-9.65193147,0.36927783000000003,0.64335942,0.043772,-0.621101,0.092608,-112.395126,137.89682,-125.449997,60.18767,24.830157,13.229893,6.557919,-1.0,-1.0,101.171104,0.0,-1.622758,-0.06226,0.125522
255571.814832,-10.07748927,0.36389214000000003,0.73601487,0.014444,-0.67399,0.091172,-112.537933,138.034714,-124.507355,60.18767,24.830157,13.229893,6.557919,-1.0,-1.0,101.171104,0.0,-1.635171,-0.064107,0.126122
255571.834815,-9.61720407,0.38544471,0.91490022,-0.014333,-0.700619,0.089732,-112.080093,138.426056,-124.136063,60.18767,24.830157,13.229893,6.557919,-1.0,-1.0,101.171104,0.0,-1.648222,-0.065774,0.126251
255571.854798,-9.530385570000002,0.44846415,1.02267288,-0.042933,-0.731741,0.101483,-112.413406,138.171616,-123.481918,60.18767,24.830157,13.229893,6.557919,-1.0,-1.0,101.171104,0.0,-1.662155,-0.067475,0.125668
255571.874781,-9.833946209999999,0.42346827,1.1653299000000001,-0.068465,-0.787871,0.088527,-112.003311,138.358047,-122.801956,60.18767,24.830157,13.229893,6.557919,-1.0,-1.0,101.171104,0.0,-1.677123,-0.069275,0.124472
255571.894765,-9.60956208,0.44921952000000004,1.2487050900000003,-0.087241,-0.791652,0.064633,-112.039154,138.549606,-122.098648,60.18767,24.830157,13.229893,6.557919,-1.0,-1.0,101.171104,0.0,-1.692821,-0.070601,0.122922
255571.914748,-9.65881809,0.59710527,1.25483634,-0.103029,-0.762683,0.070725,-112.020721,138.463745,-121.62114,60.18767,24.830157,13.229893,6.557919,-1.0,-1.0,101.171005,0.007927,-1.708595,-0.071555,0.120936
255571.934731,-9.65537478,0.7234482600000001,1.49344497,-0.103976,-0.724424,0.085434,-111.631134,138.746567,-120.420212,60.18767,24.830157,13.229893,6.557919,-1.0,-1.0,101.171005,0.007927,-1.723962,-0.072605,0.118568
255571.954714,-9.58786236,0.7117743599999999,1.51994178,-0.08306,-0.693434,0.102462,-111.622986,138.936859,-119.743164,60.18767,24.830157,13.229893,6.557919,-1.0,-1.0,101.171005,0.007927,-1.73846,-0.073928,0.116212
255571.974698,-9.596240100000001,0.7896069000000001,1.4079704400000002,-0.046439,-0.645466,0.069557,-111.391891,138.906723,-119.392899,60.18767,24.830157,13.229893,6.557919,-1.0,-1.0,101.171005,0.007927,-1.75236,-0.075441,0.114245
255571.994681,-9.923609610000002,0.93315663,1.3671117900000003,-0.013587,-0.648732,0.063859,-111.440338,138.623474,-119.388489,60.18767,24.830157,13.229893,6.557919,-1.0,-1.0,101.171005,0.007927,-1.765507,-0.076615,0.113066
255572.014664,-9.68546205,0.92013876,1.6887915,0.033828,-0.625365,0.065212,-111.457687,138.4216,-118.580429,60.18767,24.830157,13.229893,6.557919,-1.0,-1.0,101.171005,0.007927,-1.778307,-0.077724,0.112643
255572.034647,-9.52798212,0.87941745,1.96182342,0.077128,-0.619243,0.063498,-111.434952,138.281296,-118.216003,60.18767,24.830157,13.229893,6.557919,-1.0,-1.0,101.171005,0.007927,-1.790664,-0.079013,0.11307
255572.05463,-9.36438075,0.7457463900000001,2.05417476,0.119259,-0.605578,0.037186,-111.55838,138.239792,-118.088593,60.18767,24.830157,13.229893,6.557919,-1.0,-1.0,101.171005,0.007927,-1.802809,-0.080389,0.114385
255572.074614,-9.41197887,0.8378034300000001,2.15775855,0.144887,-0.590367,-0.009962,-111.55838,138.239792,-118.088593,60.18767,24.830157,13.229893,6.557919,-1.0,-1.0,101.171005,0.007927,-1.814758,-0.081472,0.11657
255572.094597,-9.469161360000001,0.86205375,2.32616682,0.144712,-0.570328,-0.050388,-112.076065,137.766724,-117.810577,60.18767,24.830157,13.229893,6.557919,-1.0,-1.0,101.171005,0.007927,-1.82635,-0.081839,0.119414
255572.11458,-9.405239400000001,0.77209605,2.6069780700000003,0.125438,-0.575212,-0.064122,-113.633423,137.594681,-117.944992,60.18767,24.830157,13.229893,6.557919,-1.0,-1.0,101.171005,0.007927,-1.837618,-0.081502,0.122411
255572.134563,-9.31647852,0.65055015,2.8024717500000005,0.102611,-0.598338,-0.062758,-116.010681,138.099503,-117.593353,60.18767,24.830157,13.229893,6.557919,-1.0,-1.0,101.171005,0.007927,-1.848952,-0.080825,0.125086
255572.154547,-9.26827218,0.61611705,2.86309755,0.081829,-0.627003,-0.073307,-117.641052,139.320526,-116.846069,60.18767,24.830157,13.229893,6.557919,-1.0,-1.0,101.171005,0.007927,-1.86074,-0.080013,0.127345
255572.17453,-9.680821920000001,0.7650622800000001,2.98509471,0.050156,-0.630371,-0.132605,-117.262665,140.629105,-115.613739,60.18767,24.830157,13.229893,6.557919,-1.0,-1.0,101.171005,0.007927,-1.873169,-0.078856,0.129224
255572.194513,-9.13565079,0.69695145,3.1829820300000002,0.016023,-0.686729,-0.1177,-114.027756,141.015732,-113.778976,60.18767,24.830157,13.229893,6.557919,-1.0,-1.0,101.171005,0.007927,-1.88574,-0.076577,0.13078
255572.214496,-9.03864951,0.6993450900000001,3.33655758,-0.022124,-0.703369,-0.142183,-110.009995,140.631607,-112.513687,60.18767,24.830157,13.229893,6.557919,-1.0,-1.0,101.171005,0.007927,-1.899419,-0.074132,0.131723
255572.23448,-9.202711950000001,0.5780934900000001,3.3852151800000003,-0.058958,-0.734284,-0.108114,-107.682556,139.191696,-112.750275,60.18767,24.830157,13.229893,6.557919,-1.0,-1.0,101.171005,0.007927,-1.913558,-0.071323,0.132084
255572.254463,-9.096136110000002,0.9053158500000001,3.42592668,-0.130805,-0.699206,-0.100041,-108.411804,137.702576,-113.076996,60.18767,24.830157,13.229893,6.557919,-1.0,-1.0,101.171005,0.007927,-1.928303,-0.068748,0.131635
255572.294429,-9.39266298,0.44367687000000006,4.37001165,-0.084706,-0.526324,-0.076294,-112.624283,137.241119,-112.724213,60.18767,24.830157,13.229893,6.557919,-1.0,-1.0,101.171005,0.007927,-1.958654,-0.063388,0.131439
255572.294429,-9.39266298,0.44367687000000006,4.37001165,-0.084706,-0.526324,-0.076294,-112.624283,137.241119,-112.724213,60.18767,24.830157,13.229893,6.557919,-1.0,-1.0,101.171005,0.007927,-1.958654,-0.063388,0.131439
255572.334396,-9.3272499,0.61282089,3.8842695000000003,-0.140144,-0.79028,-0.00593,-112.804657,138.519028,-110.918243,60.18767,24.830157,13.229893,6.557919,-1.0,-1.0,101.171005,0.007927,-1.989718,-0.059662,0.129657
255572.334396,-9.3272499,0.61282089,3.8842695000000003,-0.140144,-0.79028,-0.00593,-112.804657,138.519028,-110.918243,60.18767,24.830157,13.229893,6.557919,-1.0,-1.0,101.171005,0.007927,-1.989718,-0.059662,0.129657
255572.374362,-9.0983826,0.8014377600000001,4.06479312,-0.043182,-0.570737,0.010484,-112.130524,138.366531,-109.785202,60.18767,24.830157,13.229893,6.557919,-1.0,-1.0,101.171005,0.007927,-2.017313,-0.057271,0.12526
255572.374362,-9.0983826,0.8014377600000001,4.06479312,-0.043182,-0.570737,0.010484,-112.130524,138.366531,-109.785202,60.18767,24.830157,13.229893,6.557919,-1.0,-1.0,101.171005,0.007927,-2.017313,-0.057271,0.12526
255572.414329,-8.96156253,0.79499259,4.32540558,0.040745,-0.401496,-0.038579,-111.5336,138.415482,-108.599152,60.18767,24.830157,13.229893,6.557919,-1.0,-1.0,101.171005,0.007927,-2.038444,-0.056257,0.124502
255572.434312,-8.87115357,0.7888613400000001,4.63481298,0.066522,-0.310935,-0.030235,-111.075516,138.922104,-107.549911,60.18767,24.830157,13.229893,6.557919,-1.0,-1.0,101.171005,0.007927,-2.04613,-0.055868,0.125603
255572.454295,-8.5635414,0.72913806,4.63780503,0.05997,-0.271161,-0.023842,-110.619583,139.350113,-107.27771,60.18767,24.830157,13.229893,6.557919,-1.0,-1.0,101.171005,0.007927,-2.052146,-0.055856,0.127022
255572.474279,-8.519985,0.71820972,4.65846489,0.052901,-0.240683,-0.049101,-110.071686,139.352325,-106.944885,60.18767,24.830157,13.229893,6.557919,-1.0,-1.0,101.171005,0.007927,-2.057231,-0.055858,0.128314
255572.494262,-8.48899521,0.61866765,4.62103974,0.016906,-0.239905,-0.076268,-109.880966,139.31987,-106.594376,60.18767,24.830157,13.229893,6.557919,-1.0,-1.0,101.171005,0.007927,-2.062006,-0.055231,0.129596
255572.494262,-8.48899521,0.61866765,4.62103974,0.016906,-0.239905,-0.076268,-109.880966,139.31987,-106.594376,60.18767,24.830157,13.229893,6.557919,-1.0,-1.0,101.171005,0.007927,-2.062006,-0.055231,0.129596
255572.534228,-8.55036657,0.89333784,4.555626660000001,-0.021997,-0.258423,-0.115411,-108.484116,139.215042,-105.967667,60.18767,24.830157,13.229893,6.557919,-1.0,-1.0,101.171005,0.007927,-2.071888,-0.052012,0.131408
255572.554212,-8.46160569,0.8313680700000001,4.68795375,-0.023428,-0.294664,-0.130356,-108.297928,139.10202,-105.567963,60.18767,24.830157,13.229893,6.557919,-1.0,-1.0,101.171005,0.007927,-2.077186,-0.049632,0.132122
255572.574195,-8.47327959,0.54262053,4.77252576,-0.022083,-0.326514,-0.159661,-108.193588,139.133148,-105.412033,60.18767,24.830157,13.229893,6.557919,-1.0,-1.0,101.171005,0.007927,-2.083051,-0.04693,0.133016
255572.594178,-8.46040887,0.32512302,4.95335349,-0.024715,-0.385735,-0.156831,-107.467133,138.897308,-104.770569,60.18767,24.830157,13.229893,6.557919,-1.0,-1.0,101.171005,0.007927,-2.089681,-0.043841,0.134157
255572.614161,-8.07031422,0.46508229,5.003796510000001,-0.03318,-0.453531,-0.142259,-107.11232,138.64949,-104.347229,60.18767,24.830157,13.229893,6.557919,-1.0,-1.0,101.171005,0.007927,-2.097435,-0.040782,0.135235
255572.614161,-8.07031422,0.46508229,5.003796510000001,-0.03318,-0.453531,-0.142259,-107.11232,138.64949,-104.347229,60.18767,24.830157,13.229893,6.557919,-1.0,-1.0,101.171005,0.007927,-2.097435,-0.040782,0.135235
255572.654128,-7.9851438,0.32722236,5.18731218,-0.038771,-0.608165,-0.14971,-104.555573,138.173492,-103.810944,60.18767,24.830157,13.229893,6.557919,-1.0,-1.0,101.171005,0.007927,-2.117396,-0.035025,0.13682
255572.674111,-7.9537125600000005,0.17977806,5.21650674,-0.034092,-0.699535,-0.163678,-103.287766,137.364227,-103.202972,60.187665,24.830141,12.983812,14.292244,-1.0,-1.0,101.171005,0.007927,-2.129688,-0.031933,0.137766
255572.694095,-8.06387886,0.07215255000000001,5.27338512,-0.028901,-0.744826,-0.185786,-102.328461,135.907318,-103.530518,60.187665,24.830141,12.983812,14.292244,-1.0,-1.0,101.171005,0.007927,-2.143625,-0.028667,0.139028
255572.714079,-8.70933762,0.52525683,5.614223760000001,-0.029189,-0.785893,-0.184704,-101.81514,135.124649,-103.290649,60.187665,24.830141,12.983812,14.292244,-1.0,-1.0,101.171005,0.007927,-2.158638,-0.02514,0.140589
255572.734062,-8.391248370000001,0.15328125,5.3328141,0.111268,-0.640385,0.093559,-101.630341,135.933273,-102.549408,60.187665,24.830141,12.983812,14.292244,-1.0,-1.0,101.171005,0.007927,-2.173712,-0.023162,0.141909
255572.754045,-7.5636179100000005,0.04625415,5.7651113700000005,0.135875,-0.65614,0.003072,-101.630341,135.933273,-102.549408,60.187665,24.830141,12.983812,14.292244,-1.0,-1.0,101.171005,0.007927,-2.18628,-0.025451,0.143272
255572.774028,-7.81779501,0.09460764,5.6886228,0.0836,-0.658629,-0.060942,-101.515182,136.195847,-102.073105,60.187665,24.830141,12.983812,14.292244,-1.0,-1.0,101.171005,0.007927,-2.199968,-0.026813,0.145454
255572.794012,-8.15908491,0.1793268,5.7769324200000005,0.066319,-0.668336,-0.052015,-101.110062,135.325775,-102.077591,60.187665,24.830141,12.983812,14.292244,-1.0,-1.0,101.171005,0.007927,-2.213385,-0.026912,0.147484
255572.813995,-7.53562998,0.5149269000000001,5.88007476,0.016357,-0.622987,-0.071775,-100.628204,135.381042,-101.347672,60.187665,24.830141,12.983812,14.292244,-1.0,-1.0,101.171005,0.007927,-2.226534,-0.02656,0.149202
255572.833978,-8.44364358,0.35745678,5.92587765,0.056628,-0.516336,0.038733,-100.375839,135.227631,-101.036819,60.187665,24.830141,12.983812,14.292244,-1.0,-1.0,101.171005,0.007927,-2.238848,-0.026049,0.150187
255572.853961,-7.49521278,-0.00777933,5.91030918,0.064554,-0.543032,-0.03159,-99.983368,135.357391,-100.611084,60.187665,24.830141,12.983812,14.292244,-1.0,-1.0,101.171005,0.007927,-2.249281,-0.027111,0.15082
255572.893928,-7.41767454,0.09700128,6.16972482,0.077207,-0.519946,-0.031366,-99.399841,135.03476,-99.861038,60.187665,24.830141,12.983812,14.292244,-1.0,-1.0,101.171005,0.007927,-2.270171,-0.027604,0.15335
255572.893928,-7.41767454,0.09700128,6.16972482,0.077207,-0.519946,-0.031366,-99.399841,135.03476,-99.861038,60.187665,24.830141,12.983812,14.292244,-1.0,-1.0,101.171005,0.007927,-2.270171,-0.027604,0.15335
255572.933894,-7.34642451,0.22752333,6.31072395,0.072561,-0.438165,-0.028859,-98.81781,134.902237,-99.525757,60.187665,24.830141,12.983812,14.292244,-1.0,-1.0,101.171005,0.007927,-2.289575,-0.028276,0.156539
255572.953878,-7.35420384,0.12873663,6.51745008,0.068747,-0.451162,-0.029056,-98.664566,134.783997,-98.942963,60.187665,24.830141,12.983812,14.292244,-1.0,-1.0,101.171005,0.007927,-2.298365,-0.02871,0.157976
255572.973861,-7.18535412,0.09100737,6.49215009,0.060238,-0.490649,-0.02454,-98.192886,134.804337,-98.889755,60.187665,24.830141,12.983812,14.292244,-1.0,-1.0,101.171005,0.007927,-2.307527,-0.029088,0.159377
255572.973861,-7.18535412,0.09100737,6.49215009,0.060238,-0.490649,-0.02454,-98.192886,134.804337,-98.889755,60.187665,24.830141,12.983812,14.292244,-1.0,-1.0,101.171005,0.007927,-2.307527,-0.029088,0.159377
255573.013827,-6.97339926,0.13127742,6.72656004,0.048842,-0.530338,-0.018377,-97.53923,134.548218,-98.238373,60.187665,24.830141,12.983812,14.292244,-1.0,-1.0,101.170937,0.013212,-2.327713,-0.029784,0.161833
255573.013827,-6.97339926,0.13127742,6.72656004,0.048842,-0.530338,-0.018377,-97.53923,134.548218,-98.238373,60.187665,24.830141,12.983812,14.292244,-1.0,-1.0,101.170937,0.013212,-2.327713,-0.029784,0.161833
255573.053794,-6.752752740000001,0.1651023,6.86113362,0.033303,-0.574546,0.019376,-96.790344,134.237595,-97.955917,60.187665,24.830141,12.983812,14.292244,-1.0,-1.0,101.170937,0.013212,-2.349513,-0.030567,0.163282
255573.053794,-6.752752740000001,0.1651023,6.86113362,0.033303,-0.574546,0.019376,-96.790344,134.237595,-97.955917,60.187665,24.830141,12.983812,14.292244,-1.0,-1.0,101.170937,0.013212,-2.349513,-0.030567,0.163282
255573.09376,-6.496044660000001,0.1591182,7.09524927,0.013025,-0.647149,0.046796,-95.932373,134.721527,-96.768646,60.187665,24.830141,12.983812,14.292244,-1.0,-1.0,101.170937,0.013212,-2.37291,-0.031904,0.163354
255573.113744,-6.36925041,0.09295956000000001,7.22696814,-0.005802,-0.70373,0.055373,-95.442657,135.155853,-96.377594,60.187665,24.830141,12.983812,14.292244,-1.0,-1.0,101.170937,0.013212,-2.385853,-0.032646,0.162832
255573.133727,-6.22570068,0.15582204,7.313345190000001,-0.023171,-0.765143,0.078824,-95.157547,135.304764,-95.617828,60.187665,24.830141,12.983812,14.292244,-1.0,-1.0,101.170937,0.013212,-2.399956,-0.033255,0.161913
255573.15371,-6.16358376,0.25102809000000004,7.438932810000001,-0.037239,-0.814524,0.087669,-94.56987,136.007599,-94.68071,60.187665,24.830141,12.983812,14.292244,-1.0,-1.0,101.170937,0.013212,-2.415353,-0.033866,0.160421
255573.173694,-5.8880012399999995,0.40655583,7.37321562,-0.047219,-0.863789,0.093882,-95.050293,136.914001,-94.127777,60.187665,24.830141,12.983812,14.292244,-1.0,-1.0,101.170937,0.013212,-2.431812,-0.034305,0.158603
255573.193677,-5.97318147,0.27542556,7.53637554,-0.041702,-0.904558,0.1057,-95.711792,137.529755,-93.271637,60.187665,24.830141,12.983812,14.292244,-1.0,-1.0,101.170937,0.013212,-2.449271,-0.034725,0.156549
255573.21366,-5.7232030499999995,0.43679025000000005,7.546705470000001,-0.042983,-0.957369,0.119408,-96.952606,137.183777,-93.908707,60.187665,24.830141,12.983812,14.292244,-1.0,-1.0,101.170937,0.013212,-2.467717,-0.035254,0.155386
255573.21366,-5.7232030499999995,0.43679025000000005,7.546705470000001,-0.042983,-0.957369,0.119408,-96.952606,137.183777,-93.908707,60.187665,24.830141,12.983812,14.292244,-1.0,-1.0,101.170937,0.013212,-2.467717,-0.035254,0.155386
255573.253627,-5.76032409,0.58947309,7.77003993,0.002633,-0.958491,0.133857,-96.090439,134.365128,-94.894272,60.187665,24.830141,12.983812,14.292244,-1.0,-1.0,101.170937,0.013212,-2.507003,-0.036674,0.150842
255573.27361,-5.63069475,0.66880656,8.01747756,0.028456,-0.873244,0.143742,-92.04982,134.476608,-93.907562,60.187665,24.830141,12.983812,14.292244,-1.0,-1.0,101.170937,0.013212,-2.525983,-0.038169,0.148818
255573.293593,-5.739664230000001,0.49172625000000003,8.35622667,0.037907,-0.799491,0.144661,-89.642288,136.166214,-92.379196,60.187665,24.830141,12.983812,14.292244,-1.0,-1.0,101.170937,0.013212,-2.543201,-0.040292,0.146803
255573.313576,-5.89608468,0.45355554,8.49932514,0.024965,-0.737715,0.117321,-90.189987,137.562851,-91.665268,60.187665,24.830141,12.983812,14.292244,-1.0,-1.0,101.170937,0.013212,-2.559053,-0.0424,0.144885
255573.33356,-5.69445975,0.4858893,8.351733690000001,0.011252,-0.651577,0.091721,-91.770828,137.919159,-91.350296,60.187665,24.830141,12.983812,14.292244,-1.0,-1.0,101.170937,0.013212,-2.573555,-0.043875,0.143263
255573.353543,-5.69491101,0.58902183,8.462204100000001,0.011561,-0.529209,0.062144,-93.215836,137.894806,-91.803436,60.187665,24.830141,12.983812,14.292244,-1.0,-1.0,101.170937,0.013212,-2.586279,-0.04489,0.142424
