timestamp,accel_x,accel_y,accel_z,gyro_x,gyro_y,gyro_z,mag_x,mag_y,mag_z,gps_lat,gps_lon,gps_alt,gps_accuracy,gps_speed,gps_course,pressure,altitude,roll,pitch,yaw
258701.542973,-0.12903093000000002,-0.19235448000000002,-9.85475322,0.000417,-0.005154,0.004747,-47.123611,154.202789,-170.638214,60.187686,24.830151,13.893885,4.434482,-1.0,-1.0,101.157402,1.144125,-0.012037,0.020805,-0.996524
258701.562958,-0.11945637,-0.20492109000000003,-9.84353058,0.000152,-0.005499,0.004643,-47.062149,154.02742,-170.59697,60.187686,24.830151,13.893885,4.434482,-1.0,-1.0,101.157402,1.144125,-0.012027,0.020811,-0.99661
258701.582942,-0.14086179000000001,-0.19774017000000002,-9.835447140000001,0.001204,-0.003234,0.002976,-47.228653,154.096832,-170.610977,60.187686,24.830151,13.893885,4.434482,-1.0,-1.0,101.157402,1.144125,-0.012032,0.020816,-0.996672
258701.602927,-0.12558762,-0.20761884,-9.826912440000001,0.002981,-0.002827,0.002415,-47.069153,154.1073,-170.458252,60.187686,24.830151,13.893885,4.434482,-1.0,-1.0,101.157402,1.144125,-0.012023,0.02082,-0.996678
258701.622911,-0.12753,-0.20283156000000002,-9.80581113,0.002683,-0.001903,0.004217,-46.98497,154.105576,-170.655228,60.187686,24.830151,13.893885,4.434482,-1.0,-1.0,101.157402,1.144125,-0.012016,0.020825,-0.996783
258701.642896,-0.11286405000000001,-0.20357712,-9.83006145,0.002794,3e-06,0.004735,-46.988785,154.172928,-170.518982,60.187686,24.830151,13.893885,4.434482,-1.0,-1.0,101.157402,1.144125,-0.012025,0.020821,-0.996899
258701.66288,-0.12393954,-0.20522520000000002,-9.811049670000001,0.004614,-0.001016,0.003917,-47.084106,154.066986,-170.563309,60.187686,24.830151,13.893885,4.434482,-1.0,-1.0,101.157402,1.144125,-0.012025,0.020832,-0.996947
258701.682864,-0.13187583,-0.20582361000000002,-9.82497006,0.004152,0.000961,0.004641,-47.049591,154.178299,-170.956284,60.187686,24.830151,13.893885,4.434482,-1.0,-1.0,101.157402,1.144125,-0.01202,0.020849,-0.996983
258701.702849,-0.1212516,-0.19788732,-9.81014715,0.002478,-0.000606,0.005627,-47.079865,154.123871,-170.960144,60.187686,24.830151,13.893885,4.434482,-1.0,-1.0,101.157402,1.144125,-0.012014,0.020858,-0.997024
258701.722833,-0.11346246,-0.20192904000000003,-9.80954874,0.003736,0.001916,0.004535,-46.814377,154.219162,-170.813919,60.187686,24.830151,13.893885,4.434482,-1.0,-1.0,101.157402,1.144125,-0.012014,0.020844,-0.997032
258701.742818,-0.12274272000000001,-0.19728891,-9.81808344,0.004069,0.000215,0.005025,-47.019287,154.095337,-170.908127,60.187686,24.830151,13.893885,4.434482,-1.0,-1.0,101.157402,1.144125,-0.012012,0.020841,-0.997078
258701.762802,-0.12364524000000002,-0.20147778000000002,-9.82661814,0.003202,-6e-05,0.00371,-46.994873,154.129166,-170.815613,60.187686,24.830151,13.893885,4.434482,-1.0,-1.0,101.157402,1.144125,-0.012017,0.020846,-0.997053
258701.782787,-0.12529332,-0.19728891,-9.82078119,0.003386,0.000229,0.004008,-47.147095,153.944748,-170.80809,60.187686,24.830151,13.893885,4.434482,-1.0,-1.0,101.157402,1.144125,-0.012005,0.020842,-0.997054
258701.782787,-0.12529332,-0.19728891,-9.82078119,0.003386,0.000229,0.004008,-47.147095,153.944748,-170.80809,60.187686,24.830151,13.893885,4.434482,-1.0,-1.0,101.157402,1.144125,-0.012005,0.020842,-0.997054
258701.822756,-0.12828537,-0.20986533,-9.80670384,0.001482,-0.000521,0.005219,-46.987274,154.167709,-170.355698,60.187686,24.830151,13.893885,4.434482,-1.0,-1.0,101.157402,1.144125,-0.012004,0.020844,-0.996976
258701.84274,-0.1240965,-0.20178189000000002,-9.811500930000001,0.003818,-0.000945,0.003705,-47.156631,153.897415,-170.583908,60.187686,24.830151,13.893885,4.434482,-1.0,-1.0,101.157402,1.144125,-0.011992,0.020829,-0.996954
258701.882709,-0.1240965,-0.19774017000000002,-9.808803180000002,0.001604,-0.001274,0.003623,-47.116867,154.099945,-170.456573,60.187686,24.830151,13.893885,4.434482,-1.0,-1.0,101.157402,1.144125,-0.011971,0.020828,-0.996633
258701.882709,-0.1240965,-0.19774017000000002,-9.808803180000002,0.001604,-0.001274,0.003623,-47.116867,154.099945,-170.456573,60.187686,24.830151,13.893885,4.434482,-1.0,-1.0,101.157402,1.144125,-0.011971,0.020828,-0.996633
258701.902694,-0.12873663,-0.20207619000000002,-9.82062423,0.003555,-0.000683,0.002889,-47.137573,154.102951,-170.75827,60.187686,24.830151,13.893885,4.434482,-1.0,-1.0,101.157402,1.144125,-0.011978,0.020817,-0.996535
258701.942662,-0.10687995,-0.19728891,-9.81418887,0.003106,-2.3e-05,0.005411,-47.244431,154.284164,-170.25441,60.187686,24.830151,13.893885,4.434482,-1.0,-1.0,101.157402,1.144125,-0.011964,0.020816,-0.996452
258701.942662,-0.10687995,-0.19728891,-9.81418887,0.003106,-2.3e-05,0.005411,-47.244431,154.284164,-170.25441,60.187686,24.830151,13.893885,4.434482,-1.0,-1.0,101.157402,1.144125,-0.011964,0.020816,-0.996452
258701.982631,-0.12274272000000001,-0.20866851000000003,-9.816582510000002,0.002099,-0.001089,0.001827,-47.006439,154.26532,-170.637222,60.187686,24.830151,13.893885,4.434482,-1.0,-1.0,101.157402,1.144125,-0.011954,0.02083,-0.996482
258702.002616,-0.11496339000000001,-0.20986533,-9.810304109999999,0.003271,-0.000473,0.004707,-47.006439,154.26532,-170.637222,60.187686,24.830151,13.893885,4.434482,-1.0,-1.0,101.157402,1.144125,-0.011957,0.02083,-0.996607
258702.0226,-0.12319398000000001,-0.19489527,-9.816582510000002,0.002708,-0.001871,0.004277,-47.071594,154.136902,-170.382401,60.187686,24.830151,13.893885,4.434482,-1.0,-1.0,101.157402,1.144125,-0.01195,0.020825,-0.996665
258702.042585,-0.12513636,-0.20761884,-9.808803180000002,0.001495,-5.7e-05,0.005754,-47.292679,154.186356,-170.671951,60.187686,24.830151,13.893885,4.434482,-1.0,-1.0,101.157402,1.144125,-0.011957,0.02082,-0.996622
258702.062569,-0.13636881,-0.20492109000000003,-9.82257642,0.003453,0.000463,0.005229,-47.136841,154.006973,-170.868759,60.187686,24.830151,13.893885,4.434482,-1.0,-1.0,101.157364,1.144125,-0.01196,0.020816,-0.996576
258702.082554,-0.12903093000000002,-0.2026746,-9.813139200000002,0.003194,0.00029,0.005485,-47.016861,154.15535,-170.708374,60.187686,24.830151,13.893885,4.434482,-1.0,-1.0,101.157364,1.144125,-0.011958,0.020818,-0.996629
258702.102538,-0.11765133000000001,-0.19863287999999998,-9.82197801,0.00377,0.000484,0.004373,-47.076355,154.108505,-170.497971,60.187686,24.830151,13.893885,4.434482,-1.0,-1.0,101.157364,1.144125,-0.011955,0.02082,-0.996706
258702.122523,-0.13022775,-0.20986533,-9.82377324,0.003735,0.001381,0.003875,-47.077347,154.090332,-170.650696,60.187686,24.830151,13.893885,4.434482,-1.0,-1.0,101.157364,1.144125,-0.011946,0.020825,-0.996726
258702.142507,-0.11391372000000001,-0.20462679,-9.834397469999999,0.002428,-0.000255,0.004188,-47.047592,154.20755,-170.590332,60.187686,24.830151,13.893885,4.434482,-1.0,-1.0,101.157364,1.144125,-0.011937,0.020832,-0.996829
258702.162492,-0.12349809,-0.20118348,-9.813139200000002,0.004052,-6.2e-05,0.005798,-47.257568,154.207352,-170.660095,60.187686,24.830151,13.893885,4.434482,-1.0,-1.0,101.157364,1.144125,-0.011934,0.020826,-0.996921
258702.182476,-0.11900511,-0.20731473,-9.819584370000001,0.003016,0.000187,0.00439,-47.110458,154.17218,-171.009903,60.187686,24.830151,13.893885,4.434482,-1.0,-1.0,101.157364,1.144125,-0.011935,0.020826,-0.996996
258702.20246,-0.12798126,-0.210915,-9.80805762,0.003616,0.001015,0.00548,-46.833206,154.086899,-170.586868,60.187686,24.830151,13.893885,4.434482,-1.0,-1.0,101.157364,1.144125,-0.011936,0.020816,-0.997044
258702.222445,-0.11750418000000001,-0.18995103,-9.81628821,0.003953,0.000961,0.005103,-47.039124,154.145721,-170.872345,60.187686,24.830151,13.893885,4.434482,-1.0,-1.0,101.157364,1.144125,-0.011923,0.020814,-0.997166
258702.242429,-0.10942074000000002,-0.19534653000000002,-9.81045126,0.002228,0.001446,0.00359,-47.087433,154.09491,-170.837799,60.187686,24.830151,13.893885,4.434482,-1.0,-1.0,101.157364,1.144125,-0.011916,0.020828,-0.997262
258702.262414,-0.13441662000000001,-0.20387142,-9.81494424,0.002538,0.000789,0.003793,-47.17485,154.121414,-170.658585,60.187686,24.830151,13.893885,4.434482,-1.0,-1.0,101.157364,1.144125,-0.011906,0.020835,-0.997286
258702.282398,-0.13187583,-0.20223315000000003,-9.81823059,0.003121,0.000628,0.003547,-47.06662,154.276413,-170.652634,60.187686,24.830151,13.893885,4.434482,-1.0,-1.0,101.157364,1.144125,-0.011879,0.020844,-0.997259
258702.302383,-0.10972485000000001,-0.20118348,-9.82586277,0.003628,-0.000687,0.004258,-46.913834,154.345901,-170.842865,60.187686,24.830151,13.893885,4.434482,-1.0,-1.0,101.157364,1.144125,-0.011873,0.020851,-0.997363
258702.322367,-0.12693159,-0.2026746,-9.828266220000001,0.003155,-0.000545,0.006045,-47.19577,154.040192,-170.840485,60.187686,24.830151,13.893885,4.434482,-1.0,-1.0,101.157364,1.144125,-0.01187,0.020862,-0.997467
258702.342352,-0.11840670000000002,-0.19324719,-9.803564640000001,0.00175,0.000282,0.004944,-47.031372,153.901321,-170.653275,60.187686,24.830151,13.893885,4.434482,-1.0,-1.0,101.157364,1.144125,-0.011859,0.020861,-0.997429
258702.362336,-0.12139875000000001,-0.20671632,-9.81254079,0.003713,-0.000199,0.005108,-47.034424,154.095673,-170.782242,60.187686,24.830151,13.893885,4.434482,-1.0,-1.0,101.157364,1.144125,-0.011848,0.020863,-0.997327
258702.382321,-0.12453795000000001,-0.21599658,-9.81763218,0.004259,-0.000902,0.003695,-46.897324,154.212112,-170.614746,60.187686,24.830151,13.893885,4.434482,-1.0,-1.0,101.157364,1.144125,-0.011841,0.020866,-0.997316
258702.402305,-0.11391372000000001,-0.1963962,-9.799375770000001,0.002505,-0.000715,0.004471,-47.064178,153.947647,-170.675049,60.187686,24.830151,13.893885,4.434482,-1.0,-1.0,101.157364,1.144125,-0.011844,0.020873,-0.997363
258702.442274,-0.12334113000000002,-0.20192904000000003,-9.831258270000001,0.00414,0.000626,0.004625,-46.957382,154.17691,-171.035889,60.187686,24.830151,13.893885,4.434482,-1.0,-1.0,101.157364,1.144125,-0.011843,0.020861,-0.997313
258702.462259,-0.11570895,-0.19534653000000002,-9.80655669,0.001536,0.000587,0.004585,-47.057343,154.086792,-170.756409,60.187686,24.830151,13.893885,4.434482,-1.0,-1.0,101.157364,1.144125,-0.011853,0.020867,-0.997347
258702.482243,-0.12798126,-0.19459116,-9.80655669,0.003049,0.000187,0.004728,-46.868423,154.160294,-170.863495,60.187686,24.830151,13.893885,4.434482,-1.0,-1.0,101.157364,1.144125,-0.011859,0.020862,-0.997303
258702.502227,-0.13142457,-0.21240612000000003,-9.82257642,0.002846,-0.001471,0.003778,-46.880493,154.299454,-171.023392,60.187686,24.830151,13.893885,4.434482,-1.0,-1.0,101.157364,1.144125,-0.011865,0.020874,-0.997337
258702.522212,-0.13337676,-0.19310004,-9.817485030000002,0.004081,5.6e-05,0.004055,-46.792068,154.330383,-170.587921,60.187686,24.830151,13.893885,4.434482,-1.0,-1.0,101.157364,1.144125,-0.011874,0.020872,-0.997452
258702.542196,-0.12393954,-0.19714176,-9.79727643,0.002177,1.7e-05,0.004293,-47.034225,154.097031,-170.69989,60.187686,24.830151,13.893885,4.434482,-1.0,-1.0,101.157364,1.144125,-0.011874,0.02089,-0.99756
258702.562181,-0.12065319,-0.19878984000000002,-9.823469130000001,0.003631,-0.001961,0.003126,-47.049271,154.095856,-170.651489,60.187686,24.830151,13.893885,4.434482,-1.0,-1.0,101.157364,1.144125,-0.011879,0.020895,-0.99761
258702.582165,-0.13397517,-0.20207619000000002,-9.807007950000001,0.002433,0.00086,0.004325,-46.940353,154.279434,-170.910568,60.187686,24.830151,13.893885,4.434482,-1.0,-1.0,101.157364,1.144125,-0.011888,0.020908,-0.997659
258702.60215,-0.12993345,-0.18590931,-9.808803180000002,0.003797,-0.000337,0.004828,-46.793686,154.079529,-170.797546,60.187686,24.830151,13.893885,4.434482,-1.0,-1.0,101.157364,1.144125,-0.011892,0.020913,-0.997676
258702.622134,-0.12364524000000002,-0.20147778000000002,-9.82122264,0.004239,0.000128,0.00483,-46.964432,154.293167,-171.091568,60.187686,24.830151,13.893885,4.434482,-1.0,-1.0,101.157364,1.144125,-0.011895,0.020916,-0.997696
258702.642119,-0.12139875000000001,-0.20178189000000002,-9.820477080000002,0.003125,0.000673,0.004755,-46.926193,154.168579,-171.032959,60.187686,24.830151,13.893885,4.434482,-1.0,-1.0,101.157364,1.144125,-0.011902,0.020918,-0.997801
258702.662103,-0.12139875000000001,-0.19025514000000002,-9.819731520000001,0.002205,-0.001011,0.002532,-46.933685,154.173798,-170.536804,60.187686,24.830151,13.893885,4.434482,-1.0,-1.0,101.157364,1.144125,-0.0119,0.020921,-0.997865
258702.662103,-0.12139875000000001,-0.19025514000000002,-9.819731520000001,0.002205,-0.001011,0.002532,-46.933685,154.173798,-170.536804,60.187686,24.830151,13.893885,4.434482,-1.0,-1.0,101.157364,1.144125,-0.0119,0.020921,-0.997865
258702.662103,-0.12139875000000001,-0.19025514000000002,-9.819731520000001,0.002205,-0.001011,0.002532,-46.933685,154.173798,-170.536804,60.187686,24.830151,13.893885,4.434482,-1.0,-1.0,101.157364,1.144125,-0.0119,0.020921,-0.997865
258702.662103,-0.12139875000000001,-0.19025514000000002,-9.819731520000001,0.002205,-0.001011,0.002532,-46.933685,154.173798,-170.536804,60.187686,24.830151,13.893885,4.434482,-1.0,-1.0,101.157364,1.144125,-0.0119,0.020921,-0.997865
258702.662103,-0.12139875000000001,-0.19025514000000002,-9.819731520000001,0.002205,-0.001011,0.002532,-46.933685,154.173798,-170.536804,60.187686,24.830151,13.893885,4.434482,-1.0,-1.0,101.157364,1.144125,-0.0119,0.020921,-0.997865
258702.742041,-0.12708855,-0.20941407000000004,-9.813590460000002,0.002164,-0.000582,0.004919,-47.014603,154.281326,-170.810638,60.187686,24.830151,13.893885,4.434482,-1.0,-1.0,101.157364,1.144125,-0.011926,0.02092,-0.998053
258702.742041,-0.12708855,-0.20941407000000004,-9.813590460000002,0.002164,-0.000582,0.004919,-47.014603,154.281326,-170.810638,60.187686,24.830151,13.893885,4.434482,-1.0,-1.0,101.157364,1.144125,-0.011926,0.02092,-0.998053
258702.742041,-0.12708855,-0.20941407000000004,-9.813590460000002,0.002164,-0.000582,0.004919,-47.014603,154.281326,-170.810638,60.187686,24.830151,13.893885,4.434482,-1.0,-1.0,101.157364,1.144125,-0.011926,0.02092,-0.998053
258702.762026,-0.11705292,-0.20118348,-9.81299205,0.002674,-0.001157,0.003459,-46.82103,154.084595,-170.805664,60.187686,24.830151,13.893885,4.434482,-1.0,-1.0,101.157364,1.144125,-0.011937,0.020915,-0.998124
258702.821979,-0.12109464000000002,-0.20747169000000001,-9.81119682,0.00407,-0.001002,0.003574,-46.955582,154.250565,-170.905899,60.187686,24.830151,13.893885,4.434482,-1.0,-1.0,101.157364,1.144125,-0.011954,0.020906,-0.998326
258702.861948,-0.14115609,-0.20387142,-9.819731520000001,0.003938,0.000723,0.00384,-46.914139,154.209,-171.131744,60.187686,24.830151,13.893885,4.434482,-1.0,-1.0,101.157364,1.144125,-0.011964,0.020919,-0.998697
258702.881932,-0.13172868000000001,-0.20447964000000002,-9.81329616,0.00514,-0.000943,0.003874,-47.031677,154.165329,-170.995468,60.187686,24.830151,13.893885,4.434482,-1.0,-1.0,101.157364,1.144125,-0.011957,0.020925,-0.998781
258702.901917,-0.12649014,-0.19459116,-9.80790066,0.002949,-3.4e-05,0.00545,-46.90802,154.376434,-170.916,60.187686,24.830151,13.893885,4.434482,-1.0,-1.0,101.157364,1.144125,-0.011957,0.02094,-0.998872
258702.921901,-0.12888378,-0.20357712,-9.82841337,0.003433,-0.000463,0.00358,-46.934464,154.23056,-171.113373,60.187686,24.830151,13.893885,4.434482,-1.0,-1.0,101.157364,1.144125,-0.011966,0.020936,-0.999083
258702.941886,-0.12005478000000001,-0.1998297,-9.812246490000001,0.003784,-0.000373,0.003665,-47.013229,154.183273,-171.029465,60.187686,24.830151,13.893885,4.434482,-1.0,-1.0,101.157364,1.144125,-0.011971,0.02095,-0.99923
258702.96187,-0.14100894,-0.19295289,-9.81404172,0.002854,-0.000909,0.004536,-47.2229,154.167419,-171.17572,60.187686,24.830151,13.893885,4.434482,-1.0,-1.0,101.157364,1.144125,-0.011961,0.020948,-0.999312
258702.981855,-0.12618603,-0.20627487000000003,-9.82332198,0.003246,0.000933,0.004761,-47.062027,154.203537,-170.972443,60.187686,24.830151,13.893885,4.434482,-1.0,-1.0,101.157364,1.144125,-0.011957,0.020941,-0.999399
258703.001839,-0.12034908,-0.20492109000000003,-9.81045126,0.004743,-0.00116,0.002713,-46.93512,154.154465,-171.219864,60.187686,24.830151,13.893885,4.434482,-1.0,-1.0,101.157364,1.144125,-0.011947,0.020952,-0.999479
258703.021824,-0.12259557,-0.2080701,-9.82526436,0.003369,0.001118,0.005495,-46.94838,154.261765,-171.007645,60.187686,24.830151,13.893885,4.434482,-1.0,-1.0,101.157364,1.144125,-0.011954,0.020957,-0.999506
258703.041808,-0.12005478000000001,-0.19295289,-9.81898596,0.002805,0.000111,0.005615,-46.870392,154.2901,-171.138779,60.187686,24.830151,13.893885,4.434482,-1.0,-1.0,101.157364,1.144125,-0.011947,0.020961,-0.99961
258703.061793,-0.12274272000000001,-0.20611791,-9.81434583,0.002963,0.001099,0.003772,-46.758255,154.348511,-170.982956,60.187686,24.830151,13.893885,4.434482,-1.0,-1.0,101.157364,1.144125,-0.011942,0.020964,-0.999783
258703.081777,-0.12319398000000001,-0.20462679,-9.817033770000002,0.003598,-0.001315,0.004528,-46.784744,154.134674,-170.77327,60.187686,24.830151,13.893885,4.434482,-1.0,-1.0,101.157364,1.144125,-0.011935,0.020957,-0.999958
258703.101762,-0.12259557,-0.20043792,-9.81928026,0.002992,-0.000687,0.003197,-47.032974,154.283279,-170.915802,60.187686,24.830151,13.893885,4.434482,-1.0,-1.0,101.157364,1.144125,-0.01195,0.020948,-1.000121
258703.121746,-0.13097331,-0.19534653000000002,-9.835299990000001,0.003588,0.000556,0.002137,-46.804962,154.337906,-171.008575,60.187686,24.830151,13.893885,4.434482,-1.0,-1.0,101.157364,1.144125,-0.011946,0.020938,-1.000279
258703.141731,-0.12484206,-0.2026746,-9.807459210000001,0.003258,-0.001234,0.004605,-46.932724,154.370956,-171.056442,60.187686,24.830151,13.893885,4.434482,-1.0,-1.0,101.157364,1.144125,-0.011916,0.02094,-1.000481
258703.1817,-0.13651596,-0.20207619000000002,-9.817485030000002,0.003267,-0.001232,0.003639,-46.892654,154.167419,-171.166718,60.187686,24.830151,13.893885,4.434482,-1.0,-1.0,101.157364,1.144125,-0.011917,0.020936,-1.000854
258703.1817,-0.13651596,-0.20207619000000002,-9.817485030000002,0.003267,-0.001232,0.003639,-46.892654,154.167419,-171.166718,60.187686,24.830151,13.893885,4.434482,-1.0,-1.0,101.157364,1.144125,-0.011917,0.020936,-1.000854
258703.221669,-0.12603888000000002,-0.20881566000000001,-9.82212516,0.002325,-0.00077,0.003986,-46.821289,154.226273,-170.965622,60.187686,24.830151,13.893885,4.434482,-1.0,-1.0,101.157364,1.144125,-0.011913,0.020916,-1.00087
258703.241653,-0.11810259,-0.1995354,-9.81209934,0.002677,0.000918,0.004706,-46.781006,154.283432,-170.584427,60.187686,24.830151,13.893885,4.434482,-1.0,-1.0,101.157364,1.144125,-0.011912,0.020914,-1.000899
258703.261638,-0.13142457,-0.21135645000000003,-9.82257642,0.003059,-1.6e-05,0.004796,-46.734161,154.316559,-170.57254,60.187686,24.830151,13.893885,4.434482,-1.0,-1.0,101.157364,1.144125,-0.011906,0.020897,-1.000941
258703.281622,-0.12573477,-0.19803447000000002,-9.819133110000001,0.003097,0.000155,0.0027,-46.775787,154.575592,-170.595032,60.187686,24.830151,13.893885,4.434482,-1.0,-1.0,101.157364,1.144125,-0.011903,0.020902,-1.001026
258703.301607,-0.1158561,-0.20192904000000003,-9.815238540000001,0.003014,-0.000569,0.004705,-46.970779,154.307632,-170.395065,60.187686,24.830151,13.893885,4.434482,-1.0,-1.0,101.157364,1.144125,-0.011895,0.020914,-1.001187
258703.321591,-0.13262139,-0.21345579,-9.8216739,0.005758,0.000818,0.005077,-46.692795,154.402603,-170.642029,60.187686,24.830151,13.893885,4.434482,-1.0,-1.0,101.157364,1.144125,-0.011887,0.020915,-1.001323
258703.341575,-0.13067901,-0.19968255000000001,-9.81554265,0.003363,0.000912,0.004575,-46.778381,154.388641,-170.88147,60.187686,24.830151,13.893885,4.434482,-1.0,-1.0,101.157364,1.144125,-0.011878,0.020925,-1.001473
258703.36156,-0.11675862,-0.19264878,-9.825715620000002,0.00341,0.000205,0.004408,-46.679611,154.443787,-170.530472,60.187686,24.830151,13.893885,4.434482,-1.0,-1.0,101.157364,1.144125,-0.011859,0.020923,-1.001655
258703.381544,-0.11735703,-0.19893699,-9.82586277,0.003626,0.001063,0.004224,-46.856888,154.215164,-170.47757,60.187686,24.830151,13.893885,4.434482,-1.0,-1.0,101.157364,1.144125,-0.011848,0.020926,-1.001889
258703.401529,-0.12244842,-0.19878984000000002,-9.81254079,0.003031,0.000816,0.004228,-46.856888,154.215164,-170.47757,60.187686,24.830151,13.893885,4.434482,-1.0,-1.0,101.157364,1.144125,-0.011837,0.020923,-1.002051
258703.421513,-0.11975067000000002,-0.20926692000000002,-9.82661814,0.002576,-0.000172,0.001295,-46.714462,154.342285,-170.721756,60.187686,24.830151,13.893885,4.434482,-1.0,-1.0,101.157364,1.144125,-0.011831,0.020917,-1.002079
258703.441498,-0.12828537,-0.20387142,-9.80550702,0.004299,0.000456,0.004648,-46.923553,154.170609,-170.458298,60.187686,24.830151,13.893885,4.434482,-1.0,-1.0,101.157364,1.144125,-0.011837,0.020912,-1.002191
258703.461482,-0.12738285000000002,-0.19564083,-9.822870720000001,0.003086,0.000979,0.004096,-46.99791,154.144531,-170.529755,60.187686,24.830151,13.893885,4.434482,-1.0,-1.0,101.157364,1.144125,-0.011841,0.020917,-1.002176
258703.461482,-0.12738285000000002,-0.19564083,-9.822870720000001,0.003086,0.000979,0.004096,-46.99791,154.144531,-170.529755,60.187686,24.830151,13.893885,4.434482,-1.0,-1.0,101.157364,1.144125,-0.011841,0.020917,-1.002176
258703.481467,-0.13696722,-0.2023803,-9.808803180000002,0.002343,0.000491,0.003161,-46.763428,154.344223,-170.369324,60.187686,24.830151,13.893885,4.434482,-1.0,-1.0,101.157364,1.144125,-0.011822,0.020914,-1.002234
258703.521436,-0.11945637,-0.19175607,-9.83738952,-0.000581,-0.007603,0.005243,-46.81337,154.37381,-170.509232,60.187686,24.830151,13.893885,4.434482,-1.0,-1.0,101.157364,1.144125,-0.011767,0.020904,-1.002454
258703.54142,-0.13113027000000002,-0.20551950000000002,-9.832150980000002,0.001663,-0.005678,0.004892,-46.875046,154.417557,-170.540253,60.187686,24.830151,13.893885,4.434482,-1.0,-1.0,101.157364,1.144125,-0.011788,0.020904,-1.002594
258703.561405,-0.17633475,-0.18755739000000002,-10.019561220000002,0.026742,0.074558,0.002101,-46.839066,154.088745,-170.652267,60.187686,24.830151,13.893885,4.434482,-1.0,-1.0,101.157364,1.144125,-0.011615,0.020963,-1.00264
258703.581389,0.03697389,-0.23995260000000002,-9.2691747,0.040259,0.111443,-0.000519,-46.67717,154.184845,-170.611267,60.187686,24.830151,13.893885,4.434482,-1.0,-1.0,101.157364,1.144125,-0.009437,0.021652,-1.002796
258703.601374,-0.52496253,-0.20851155000000002,-10.00549368,-0.046537,-0.157928,-0.006861,-46.85878,154.118637,-171.001129,60.187686,24.830151,13.893885,4.434482,-1.0,-1.0,101.157364,1.144125,-0.009083,0.021776,-1.002908
258703.621358,-0.13831119,-0.08457201,-9.88663572,0.015618,0.053885,-0.616598,-46.674362,154.588409,-170.384872,60.187686,24.830151,13.893885,4.434482,-1.0,-1.0,101.157364,1.144125,-0.011366,0.021048,-1.004926
258703.641343,0.1850166,0.72404667,-9.94202298,0.075278,0.276851,-0.210313,-46.460876,154.45491,-170.640152,60.187686,24.830151,13.893885,4.434482,-1.0,-1.0,101.157364,1.144125,-0.009665,0.021473,-1.016942
258703.641343,0.1850166,0.72404667,-9.94202298,0.075278,0.276851,-0.210313,-46.460876,154.45491,-170.640152,60.187686,24.830151,13.893885,4.434482,-1.0,-1.0,101.157364,1.144125,-0.009665,0.021473,-1.016942
258703.681312,0.92358207,-0.5620835700000001,-9.36692154,-0.414016,-0.040462,-0.254486,-46.38887,154.797607,-170.789215,60.187686,24.830151,13.893885,4.434482,-1.0,-1.0,101.157364,1.144125,-0.003557,0.018512,-1.021464
258703.701296,-0.21135645000000003,-0.6994922400000001,-11.11947804,-0.306301,-0.118962,-0.107305,-46.554916,155.034393,-170.649078,60.187686,24.830151,13.893885,4.434482,-1.0,-1.0,101.157364,1.144125,-0.005795,0.010404,-1.02569
258703.701296,-0.21135645000000003,-0.6994922400000001,-11.11947804,-0.306301,-0.118962,-0.107305,-46.554916,155.034393,-170.649078,60.187686,24.830151,13.893885,4.434482,-1.0,-1.0,101.157364,1.144125,-0.005795,0.010404,-1.02569
258703.701296,-0.21135645000000003,-0.6994922400000001,-11.11947804,-0.306301,-0.118962,-0.107305,-46.554916,155.034393,-170.649078,60.187686,24.830151,13.893885,4.434482,-1.0,-1.0,101.157364,1.144125,-0.005795,0.010404,-1.02569
258703.741265,-1.33208028,-0.26704782,-9.839488860000001,-0.228545,-0.046971,-0.166302,-46.20665,155.468979,-170.852859,60.187686,24.830151,13.893885,4.434482,-1.0,-1.0,101.157364,1.144125,-0.003234,0.001939,-1.029421
258703.781234,-0.07589016,0.25461855,-10.587628890000001,-0.202137,0.147018,-0.580839,-46.146866,156.337997,-170.870255,60.187686,24.830151,13.893885,4.434482,-1.0,-1.0,101.157364,1.144125,-0.004355,-0.008033,-1.042919
258703.781234,-0.07589016,0.25461855,-10.587628890000001,-0.202137,0.147018,-0.580839,-46.146866,156.337997,-170.870255,60.187686,24.830151,13.893885,4.434482,-1.0,-1.0,101.157364,1.144125,-0.004355,-0.008033,-1.042919
258703.821203,0.35700552,0.5601313800000001,-10.121506740000001,-0.588856,0.228872,-0.292406,-45.646027,157.411087,-171.157364,60.187686,24.830151,13.893885,4.434482,-1.0,-1.0,101.157364,1.144125,0.007319,-0.018474,-1.063472
258703.841188,0.26180928000000003,0.26629245,-10.289306790000001,-0.81257,0.278595,-0.245153,-45.235504,158.35054,-170.762146,60.187686,24.830151,13.893885,4.434482,-1.0,-1.0,101.157364,1.144125,0.012038,-0.031448,-1.068847
258703.861172,0.59710527,0.51837021,-10.211317290000002,-1.022884,0.4934,-0.281971,-45.040894,159.285004,-170.807373,60.187686,24.830151,13.893885,4.434482,-1.0,-1.0,101.157364,1.144125,0.018419,-0.048951,-1.073875
258703.901141,0.82748331,1.21098564,-13.34579868,-0.751784,0.22822,0.005777,-44.54422,160.509033,-170.669998,60.187686,24.830151,13.893885,4.434482,-1.0,-1.0,101.157364,1.144125,0.03647,-0.091,-1.080439
258703.921126,0.3065625,1.23897357,-14.567859810000002,-0.051538,-0.058662,0.072057,-44.895187,160.894272,-170.772583,60.187686,24.830151,13.893885,4.434482,-1.0,-1.0,101.157364,1.144125,0.039741,-0.102719,-1.079222
258703.94111,0.20432268,0.9171467100000001,-14.07508389,0.811853,-0.182777,0.070308,-45.425476,160.191711,-171.411377,60.187686,24.830151,13.893885,4.434482,-1.0,-1.0,101.157364,1.144125,0.037761,-0.099388,-1.077844
258703.94111,0.20432268,0.9171467100000001,-14.07508389,0.811853,-0.182777,0.070308,-45.425476,160.191711,-171.411377,60.187686,24.830151,13.893885,4.434482,-1.0,-1.0,101.157364,1.144125,0.037761,-0.099388,-1.077844
258703.981079,0.33365772000000005,0.55744344,-10.98026433,1.32312,0.083805,0.151653,-46.539169,158.034348,-171.591232,60.187686,24.830151,13.893885,4.434482,-1.0,-1.0,101.157364,1.144125,0.033804,-0.052553,-1.075258
258704.001064,0.6336279,0.29324052,-10.99912896,1.190165,0.161599,0.15435,-46.85463,157.083908,-172.174393,60.187686,24.830151,13.893885,4.434482,-1.0,-1.0,101.157364,1.144125,0.036038,-0.02691,-1.072694
258704.021048,1.19556432,0.25866027,-10.9844532,1.070655,0.078504,0.229739,-47.110504,156.333466,-172.305481,60.187686,24.830151,13.893885,4.434482,-1.0,-1.0,101.157364,1.144125,0.039073,-0.003638,-1.069632
258704.041033,1.05694902,-0.12185001000000001,-10.739271870000001,1.014109,0.026371,0.38581,-47.619629,154.940231,-172.557022,60.187686,24.830151,13.893885,4.434482,-1.0,-1.0,101.157364,1.144125,0.040293,0.017613,-1.06473
258704.061017,0.23246757,-0.66342087,-10.691820900000002,0.923179,-0.067973,0.442801,-48.265579,154.219162,-172.675247,60.187686,24.830151,13.893885,4.434482,-1.0,-1.0,101.157364,1.144125,0.040078,0.037604,-1.056734
258704.081002,0.11106882000000001,-0.8476919100000001,-10.65379734,0.876299,0.014975,0.362039,-48.306641,153.116913,-172.631332,60.187686,24.830151,13.893885,4.434482,-1.0,-1.0,101.157364,1.144125,0.038657,0.056123,-1.048345
258704.100986,0.52196067,-0.84633813,-11.03146272,0.830895,0.289164,0.274588,-48.306641,153.116913,-172.631332,60.187686,24.830151,13.893885,4.434482,-1.0,-1.0,101.157364,1.144125,0.039825,0.073449,-1.041552
258704.120971,0.9936352800000001,-0.89438751,-10.79390376,0.917269,0.45498,0.2612,-48.289688,152.248154,-172.45903,60.187686,24.830151,13.893885,4.434482,-1.0,-1.0,101.157364,1.144125,0.046382,0.09055,-1.036174
258704.140955,1.06473816,-0.8759741400000001,-10.11775932,0.995943,0.185475,0.305733,-48.481644,151.371414,-172.537033,60.187686,24.830151,13.893885,4.434482,-1.0,-1.0,101.157364,1.144125,0.054053,0.109509,-1.03091
258704.16094,0.74664891,-1.17805347,-9.258099210000001,0.998382,-0.099339,0.331517,-48.698563,150.433105,-172.413361,60.187686,24.830151,13.893885,4.434482,-1.0,-1.0,101.157364,1.144125,0.055247,0.129848,-1.024806
258704.180924,0.54995841,-1.43910738,-8.857831590000002,0.845701,-0.05301,0.323908,-49.314804,149.224106,-172.539139,60.187686,24.830151,13.893885,12.508017,-1.0,-1.0,101.157364,1.144125,0.052524,0.149405,-1.018031
258704.180924,0.54995841,-1.43910738,-8.857831590000002,0.845701,-0.05301,0.323908,-49.314804,149.224106,-172.539139,60.187686,24.830151,13.893885,12.508017,-1.0,-1.0,101.157364,1.144125,0.052524,0.149405,-1.018031
258704.220893,0.34832367,-1.7601886800000002,-10.03094082,0.642763,0.295143,0.205196,-49.486221,147.580322,-172.373444,60.187686,24.830151,13.893885,12.508017,-1.0,-1.0,101.157318,1.149409,0.055008,0.178592,-1.005784
258704.240878,0.36030168,-1.77829794,-9.617949630000002,0.825319,0.344082,0.150408,-49.510208,146.988373,-172.151398,60.187686,24.830151,13.893885,12.508017,-1.0,-1.0,101.157318,1.149409,0.060793,0.19247,-1.001342
258704.260862,0.55340172,-1.9380243600000002,-8.58898854,0.851851,0.190875,0.128936,-49.532745,146.186691,-171.682861,60.187686,24.830151,13.893885,12.508017,-1.0,-1.0,101.157318,1.149409,0.06654,0.209445,-0.998146
258704.280847,0.79874001,-2.22497667,-8.36895024,0.679168,0.25434,0.099759,-49.372314,145.26004,-171.699951,60.187686,24.830151,13.893885,12.508017,-1.0,-1.0,101.157318,1.149409,0.070299,0.225714,-0.996163
258704.300831,0.60025428,-2.45115603,-8.91396441,0.537114,0.343265,0.106713,-49.261093,144.814606,-171.202713,60.187686,24.830151,13.893885,12.508017,-1.0,-1.0,101.157318,1.149409,0.075703,0.238477,-0.993701
258704.320816,0.6712002,-2.63826216,-9.684108270000001,0.582831,0.244769,0.046342,-49.021347,144.30072,-170.960098,60.187686,24.830151,13.893885,12.508017,-1.0,-1.0,101.157318,1.149409,0.081891,0.249214,-0.991236
258704.3408,1.15649109,-2.6101270800000003,-9.58546872,0.765924,0.261121,0.05122,-48.987274,143.694122,-170.703995,60.187686,24.830151,13.893885,12.508017,-1.0,-1.0,101.157318,1.149409,0.086952,0.261741,-0.990115
258704.360785,0.63079281,-2.90426031,-8.76427362,0.88306,0.371882,0.100552,-48.769638,142.647812,-170.476501,60.187686,24.830151,13.893885,12.508017,-1.0,-1.0,101.157318,1.149409,0.092715,0.277828,-0.988898
258704.380769,0.27647523,-3.98351727,-9.34386804,0.863128,0.716125,0.168617,-48.471451,141.860733,-170.134186,60.187686,24.830151,13.893885,12.508017,-1.0,-1.0,101.157318,1.149409,0.101185,0.295248,-0.987117
258704.400754,0.44248005,-3.1630677300000003,-9.37545624,1.044077,0.685338,0.092461,-47.842087,141.055847,-169.522964,60.187686,24.830151,13.893885,12.508017,-1.0,-1.0,101.157318,1.149409,0.11437,0.313899,-0.984762
258704.420738,0.79170624,-3.45795633,-9.0898479,1.210575,0.486826,0.044754,-47.752563,139.861771,-168.938995,60.187686,24.830151,13.893885,12.508017,-1.0,-1.0,101.157318,1.149409,0.127168,0.335514,-0.984489
258704.440723,0.9422897400000001,-4.12332939,-8.22584196,1.379349,0.502271,0.074328,-47.230881,138.981934,-168.394562,60.187686,24.830151,13.893885,12.508017,-1.0,-1.0,101.157318,1.149409,0.138007,0.360561,-0.985437
258704.460707,0.55204794,-4.13141283,-7.084919340000001,1.391309,0.54353,0.077488,-46.864441,137.864365,-167.184875,60.187686,24.830151,13.893885,12.508017,-1.0,-1.0,101.157318,1.149409,0.14923,0.388163,-0.986592
258704.480692,0.56192661,-4.432736790000001,-5.870637540000001,1.16821,0.364236,0.030277,-46.60878,136.895264,-166.638123,60.187686,24.830151,13.893885,12.508017,-1.0,-1.0,101.157318,1.149409,0.160357,0.414953,-0.988589
258704.500676,0.7906565700000001,-4.65516873,-5.370386400000001,0.799828,0.222922,-0.013122,-46.45549,136.304764,-166.135147,60.187686,24.830151,13.893885,12.508017,-1.0,-1.0,101.157318,1.149409,0.168462,0.436236,-0.990948
258704.520661,1.0033668,-4.71849228,-5.845190400000001,0.436132,0.072814,-0.01445,-46.365143,135.882141,-165.859467,60.187686,24.830151,13.893885,12.508017,-1.0,-1.0,101.157318,1.149409,0.173485,0.449875,-0.992822
258704.540645,1.19226816,-4.71818817,-6.2962051500000005,0.285859,-0.063654,-0.014067,-46.415421,135.776764,-165.628754,60.187686,24.830151,13.893885,12.508017,-1.0,-1.0,101.157318,1.149409,0.175072,0.457371,-0.993613
258704.580614,0.9381008700000001,-4.65636555,-6.6783635100000005,0.152431,-0.096019,-0.001546,-46.470154,135.291489,-165.880997,60.187686,24.830151,13.893885,12.508017,-1.0,-1.0,101.157318,1.149409,0.171922,0.466499,-0.993099
258704.580614,0.9381008700000001,-4.65636555,-6.6783635100000005,0.152431,-0.096019,-0.001546,-46.470154,135.291489,-165.880997,60.187686,24.830151,13.893885,12.508017,-1.0,-1.0,101.157318,1.149409,0.171922,0.466499,-0.993099
258704.580614,0.9381008700000001,-4.65636555,-6.6783635100000005,0.152431,-0.096019,-0.001546,-46.470154,135.291489,-165.880997,60.187686,24.830151,13.893885,12.508017,-1.0,-1.0,101.157318,1.149409,0.171922,0.466499,-0.993099
258704.580614,0.9381008700000001,-4.65636555,-6.6783635100000005,0.152431,-0.096019,-0.001546,-46.470154,135.291489,-165.880997,60.187686,24.830151,13.893885,12.508017,-1.0,-1.0,101.157318,1.149409,0.171922,0.466499,-0.993099
258704.580614,0.9381008700000001,-4.65636555,-6.6783635100000005,0.152431,-0.096019,-0.001546,-46.470154,135.291489,-165.880997,60.187686,24.830151,13.893885,12.508017,-1.0,-1.0,101.157318,1.149409,0.171922,0.466499,-0.993099
258704.660553,1.5898478400000002,-4.432736790000001,-6.637347900000001,0.19136,0.089582,-0.068772,-46.745071,134.896088,-165.135895,60.187686,24.830151,13.893885,12.508017,-1.0,-1.0,101.157318,1.149409,0.168199,0.481724,-0.997821
258704.680537,1.09212768,-4.57882731,-6.6325606200000005,0.164135,0.0613,0.007895,-46.706329,134.864136,-165.184326,60.187686,24.830151,13.893885,12.508017,-1.0,-1.0,101.157318,1.149409,0.17108,0.485186,-0.998392
258704.720506,1.29914811,-4.6229821200000005,-7.212753450000001,0.13187,0.252156,-0.160871,-46.143524,134.7939,-164.980713,60.187686,24.830151,13.893885,12.508017,-1.0,-1.0,101.157318,1.149409,0.175057,0.490843,-1.000253
258704.720506,1.29914811,-4.6229821200000005,-7.212753450000001,0.13187,0.252156,-0.160871,-46.143524,134.7939,-164.980713,60.187686,24.830151,13.893885,12.508017,-1.0,-1.0,101.157318,1.149409,0.175057,0.490843,-1.000253
258704.720506,1.29914811,-4.6229821200000005,-7.212753450000001,0.13187,0.252156,-0.160871,-46.143524,134.7939,-164.980713,60.187686,24.830151,13.893885,12.508017,-1.0,-1.0,101.157318,1.149409,0.175057,0.490843,-1.000253
258704.760474,1.9281358800000001,-4.31028837,-8.40607128,0.196435,0.320537,-0.019727,-45.45047,134.692245,-164.407318,60.187686,24.830151,13.893885,12.508017,-1.0,-1.0,101.157318,1.149409,0.194482,0.494864,-1.006752
258704.780459,1.64717748,-4.25849157,-8.458309530000001,0.46217,-0.031249,0.060672,-45.715012,134.185074,-164.517258,60.187686,24.830151,13.893885,12.508017,-1.0,-1.0,101.157318,1.149409,0.199349,0.499926,-1.007078
258704.820428,1.0945213200000001,-4.35759219,-7.10467668,0.530724,-0.033066,0.083385,-45.801224,133.707489,-164.28569,60.187686,24.830151,13.893885,12.508017,-1.0,-1.0,101.157318,1.149409,0.196626,0.523097,-1.007282
258704.840412,0.9048645900000001,-4.342769280000001,-7.323371010000001,0.338191,0.148246,-0.003708,-45.899933,133.419739,-163.875992,60.187686,24.830151,13.893885,12.508017,-1.0,-1.0,101.157318,1.149409,0.197232,0.532591,-1.007434
258704.860397,1.39928859,-4.3164196200000005,-7.4640758400000005,0.258512,-0.012325,-0.076677,-45.738266,133.292664,-163.577393,60.187686,24.830151,13.893885,12.508017,-1.0,-1.0,101.157318,1.149409,0.201084,0.538532,-1.009018
258704.880381,2.00897028,-4.23753741,-7.381603170000001,0.257636,-0.500024,-0.003601,-45.954605,133.02536,-163.860489,60.187686,24.830151,13.893885,12.508017,-1.0,-1.0,101.157318,1.149409,0.199713,0.543344,-1.011204
258704.900366,1.47233385,-4.2888829500000005,-7.528596210000001,0.112691,-0.412912,0.087745,-46.292252,133.077042,-163.500854,60.187686,24.830151,13.893885,12.508017,-1.0,-1.0,101.157318,1.149409,0.189822,0.547823,-1.011309
258704.92035,0.7716447900000001,-4.44066327,-8.15773113,-0.069273,-0.028681,-0.002973,-46.446198,133.049149,-163.679749,60.187686,24.830151,13.893885,12.508017,-1.0,-1.0,101.157318,1.149409,0.183089,0.549251,-1.009557
258704.940335,1.00201302,-4.40728965,-8.52507639,-0.013349,0.086123,-0.143181,-46.310654,133.053619,-163.739792,60.187686,24.830151,13.893885,12.508017,-1.0,-1.0,101.157318,1.149409,0.183821,0.547671,-1.009876
258704.960319,2.08486044,-4.32989856,-7.86285234,0.142492,-0.226161,-0.162575,-46.31662,133.290527,-163.755981,60.187686,24.830151,13.893885,12.508017,-1.0,-1.0,101.157318,1.149409,0.186178,0.547669,-1.013576
258704.980304,1.9911553200000003,-4.3803415800000005,-7.40569653,0.080097,-0.342253,-0.01943,-46.311722,133.163986,-163.752945,60.187686,24.830151,13.893885,12.508017,-1.0,-1.0,101.157318,1.149409,0.182443,0.549957,-1.017003
258705.000288,1.06263882,-4.3028033400000005,-7.8023736900000005,-0.165257,-0.081546,0.039363,-46.791611,133.073761,-163.760239,60.187686,24.830151,13.893885,12.508017,-1.0,-1.0,101.157318,1.149409,0.176834,0.550236,-1.016717
258705.020273,0.87687666,-4.24023516,-8.16252822,-0.261951,-0.06751,-0.070375,-46.514801,133.347931,-164.227158,60.187686,24.830151,13.893885,12.508017,-1.0,-1.0,101.157318,1.149409,0.175326,0.546277,-1.015309
258705.040257,1.58834691,-3.77559432,-7.48294047,-0.231992,-0.491028,-0.132372,-47.009018,133.484283,-164.657166,60.187686,24.830151,13.893885,12.508017,-1.0,-1.0,101.157318,1.149409,0.172655,0.541035,-1.016351
258705.060242,2.03157252,-3.4820595,-7.3905793200000005,-0.460865,-0.655911,-0.077045,-47.364243,133.854004,-164.829117,60.187686,24.830151,13.893885,12.508017,-1.0,-1.0,101.157318,1.149409,0.162398,0.535021,-1.017894
258705.080226,1.58894532,-3.23536743,-8.35606971,-0.733199,-0.28702,0.02017,-47.681549,134.468018,-165.717331,60.187686,24.830151,13.893885,12.508017,-1.0,-1.0,101.157318,1.149409,0.150689,0.524195,-1.017137
258705.100211,0.9888480000000001,-3.1620278699999997,-9.13834854,-0.747608,-0.060955,0.005364,-47.830383,134.975998,-166.295853,60.187686,24.830151,13.893885,12.508017,-1.0,-1.0,101.157318,1.149409,0.144775,0.509327,-1.014193
258705.120196,1.2614286600000002,-2.80277586,-9.01769535,-0.63617,-0.177759,-0.06933,-47.989731,135.509521,-166.835312,60.187686,24.830151,13.893885,12.508017,-1.0,-1.0,101.157318,1.149409,0.142647,0.495088,-1.01245
258705.14018,1.83502917,-2.72194146,-8.74406502,-0.601534,-0.487694,-0.039866,-48.479538,135.748001,-167.122192,60.187686,24.830151,13.893885,12.508017,-1.0,-1.0,101.157318,1.149409,0.13703,0.482481,-1.01203
258705.160165,1.6284600000000002,-2.62180098,-8.27374419,-0.746581,-0.496796,0.067558,-48.885056,136.486145,-167.829285,60.187686,24.830151,13.893885,12.508017,-1.0,-1.0,101.157318,1.149409,0.126468,0.470025,-1.010188
258705.180149,0.9948321,-2.5020503100000004,-9.17501832,-1.002643,-0.368905,0.123398,-49.30629,137.232758,-168.808701,60.187686,24.830151,13.893885,12.508017,-1.0,-1.0,101.157318,1.149409,0.115094,0.453853,-1.005867
258705.200134,0.69664734,-2.6952975,-9.623786579999999,-1.041873,-0.19113,0.071529,-49.333359,138.078369,-169.226471,60.187686,24.830151,13.893885,12.508017,-1.0,-1.0,101.157318,1.149409,0.106656,0.433705,-1.000713
258705.220118,0.61446897,-2.87656668,-8.977131,-1.003906,-0.217973,0.034874,-49.709732,138.790894,-169.876999,60.187686,24.830151,13.893885,12.508017,-1.0,-1.0,101.157318,1.149409,0.101761,0.413345,-0.99715
258705.240103,0.67210272,-2.59470576,-9.05736699,-1.121778,-0.57248,-0.010903,-50.330338,139.644043,-170.709625,60.187686,24.830151,13.893885,12.508017,-1.0,-1.0,101.157318,1.149409,0.093762,0.39312,-0.994119
258705.260087,0.8556183900000001,-2.16689166,-10.30681764,-1.136758,-0.292435,-0.089009,-50.388962,140.866302,-170.835052,60.187686,24.830151,13.893885,12.508017,-1.0,-1.0,101.157318,1.149409,0.083427,0.37028,-0.992869
258705.300056,1.46321055,-2.1168999000000004,-10.47072312,-0.768623,-0.348051,-0.087778,-50.917725,142.615311,-171.83696,60.187686,24.830151,13.893885,12.508017,-1.0,-1.0,101.157303,1.152052,0.07198,0.329441,-0.993786
258705.300056,1.46321055,-2.1168999000000004,-10.47072312,-0.768623,-0.348051,-0.087778,-50.917725,142.615311,-171.83696,60.187686,24.830151,13.893885,12.508017,-1.0,-1.0,101.157303,1.152052,0.07198,0.329441,-0.993786
258705.340025,-0.22737618,-2.7780742800000002,-9.57872925,-0.8651,-0.601148,-0.023996,-51.657623,144.150574,-173.066376,60.187686,24.830151,13.893885,12.508017,-1.0,-1.0,101.157303,1.152052,0.056888,0.298603,-0.993525
258705.36001,0.43619184,-1.84117023,-10.35112941,-0.943423,-0.584465,-0.127445,-52.094147,145.057709,-173.563797,60.187686,24.830151,13.893885,12.508017,-1.0,-1.0,101.157303,1.152052,0.044631,0.280724,-0.993851
258705.379994,1.10425284,-1.8080909100000002,-11.01049875,-0.938543,-0.422734,-0.027681,-52.424255,146.133408,-173.691986,60.187686,24.830151,13.893885,12.508017,-1.0,-1.0,101.157303,1.152052,0.034141,0.261979,-0.9955
258705.379994,1.10425284,-1.8080909100000002,-11.01049875,-0.938543,-0.422734,-0.027681,-52.424255,146.133408,-173.691986,60.187686,24.830151,13.893885,12.508017,-1.0,-1.0,101.157303,1.152052,0.034141,0.261979,-0.9955
258705.419963,-0.2311236,-1.7905800600000001,-11.3980428,-0.605978,-0.177696,0.029326,-52.865005,147.521042,-174.241104,60.187686,24.830151,13.893885,12.508017,-1.0,-1.0,101.157303,1.152052,0.018951,0.228813,-0.993098
258705.419963,-0.2311236,-1.7905800600000001,-11.3980428,-0.605978,-0.177696,0.029326,-52.865005,147.521042,-174.241104,60.187686,24.830151,13.893885,12.508017,-1.0,-1.0,101.157303,1.152052,0.018951,0.228813,-0.993098
258705.419963,-0.2311236,-1.7905800600000001,-11.3980428,-0.605978,-0.177696,0.029326,-52.865005,147.521042,-174.241104,60.187686,24.830151,13.893885,12.508017,-1.0,-1.0,101.157303,1.152052,0.018951,0.228813,-0.993098
258705.479917,0.31808925000000005,-1.2593293200000002,-11.180398140000001,-0.334475,0.056878,-0.01317,-52.069458,148.922638,-174.349472,60.187686,24.830151,13.893885,12.508017,-1.0,-1.0,101.157303,1.152052,0.022017,0.194475,-0.997617
258705.499902,-0.20223315000000003,-1.25708283,-9.72976401,-0.229119,0.033303,-0.014705,-52.069458,148.922638,-174.349472,60.187686,24.830151,13.893885,12.508017,-1.0,-1.0,101.157303,1.152052,0.023069,0.188699,-0.998415
258705.499902,-0.20223315000000003,-1.25708283,-9.72976401,-0.229119,0.033303,-0.014705,-52.069458,148.922638,-174.349472,60.187686,24.830151,13.893885,12.508017,-1.0,-1.0,101.157303,1.152052,0.023069,0.188699,-0.998415
258705.539871,0.34802937000000006,-3.3124642200000003,-9.31378077,-0.552274,0.336488,-0.071532,-51.205536,149.959854,-174.242661,60.187686,24.830151,13.893885,12.508017,-1.0,-1.0,101.157303,1.152052,0.0272,0.17339,-1.002824
258705.539871,0.34802937000000006,-3.3124642200000003,-9.31378077,-0.552274,0.336488,-0.071532,-51.205536,149.959854,-174.242661,60.187686,24.830151,13.893885,12.508017,-1.0,-1.0,101.157303,1.152052,0.0272,0.17339,-1.002824
258705.539871,0.34802937000000006,-3.3124642200000003,-9.31378077,-0.552274,0.336488,-0.071532,-51.205536,149.959854,-174.242661,60.187686,24.830151,13.893885,12.508017,-1.0,-1.0,101.157303,1.152052,0.0272,0.17339,-1.002824
258705.599824,1.2927127500000002,-0.7580285100000002,-11.117977110000002,-1.000083,0.341757,-0.162952,-50.087173,152.39827,-173.867111,60.187686,24.830151,13.893885,12.508017,-1.0,-1.0,101.157303,1.152052,0.044501,0.129962,-1.020243
258705.619809,0.7375158,-1.22550444,-10.98745506,-0.674553,0.304494,-0.102888,-49.341187,153.486359,-173.719711,60.187686,24.830151,13.893885,12.508017,-1.0,-1.0,101.157303,1.152052,0.051799,0.111519,-1.024136
258705.639793,0.850527,-1.22969331,-10.1683593,-0.497049,0.028935,-0.074864,-48.939301,154.181717,-173.389374,60.187686,24.830151,13.893885,12.508017,-1.0,-1.0,101.157303,1.152052,0.056638,0.099056,-1.027387
258705.659778,0.43499502,-0.9843550200000001,-10.16506314,-0.574122,-0.088739,-0.037366,-48.874664,154.540054,-173.154419,60.187686,24.830151,13.893885,12.508017,-1.0,-1.0,101.157303,1.152052,0.056407,0.088739,-1.030117
258705.659778,0.43499502,-0.9843550200000001,-10.16506314,-0.574122,-0.088739,-0.037366,-48.874664,154.540054,-173.154419,60.187686,24.830151,13.893885,12.508017,-1.0,-1.0,101.157303,1.152052,0.056407,0.088739,-1.030117
258705.659778,0.43499502,-0.9843550200000001,-10.16506314,-0.574122,-0.088739,-0.037366,-48.874664,154.540054,-173.154419,60.187686,24.830151,13.893885,12.508017,-1.0,-1.0,101.157303,1.152052,0.056407,0.088739,-1.030117
258705.719731,1.64462688,-0.30446316,-10.13287653,-0.267109,0.070908,-0.157462,-48.106201,156.013107,-172.708786,60.187686,24.830151,13.893885,12.508017,-1.0,-1.0,101.157303,1.152052,0.057843,0.057993,-1.040563
258705.739716,0.14983794,-1.00725156,-9.71045793,-0.262707,0.036736,-0.117212,-47.877701,156.242523,-172.866501,60.187686,24.830151,13.893885,12.508017,-1.0,-1.0,101.157303,1.152052,0.058862,0.052795,-1.044631
258705.759701,0.92193399,-0.27243351000000005,-9.4453623,-0.289707,0.223791,-0.151708,-47.586533,156.328873,-172.223602,60.187686,24.830151,13.893885,12.508017,-1.0,-1.0,101.157303,1.152052,0.060583,0.047362,-1.049153
258705.779686,1.1308968,-0.1938456,-9.889186320000002,-0.332238,0.20564,-0.097133,-47.273895,156.604095,-171.837082,60.187686,24.830151,13.893885,12.508017,-1.0,-1.0,101.157303,1.152052,0.065209,0.040845,-1.05357
258705.799671,0.89139546,-0.4770603,-9.78934014,-0.225189,0.075196,-0.036844,-47.031799,156.93573,-171.997299,60.187686,24.830151,13.893885,12.508017,-1.0,-1.0,101.157303,1.152052,0.068684,0.03461,-1.056763
258705.819655,0.64650843,-0.45475236,-9.3702177,-0.142837,-0.163345,0.031008,-47.200272,156.864288,-171.704391,60.187686,24.830151,13.893885,12.508017,-1.0,-1.0,101.157303,1.152052,0.069089,0.030692,-1.058907
258705.83964,0.25866027,-0.7503865200000001,-9.65746431,-0.177358,-0.143568,0.043997,-46.890121,157.012573,-171.645065,60.187686,24.830151,13.893885,12.508017,-1.0,-1.0,101.157303,1.152052,0.065694,0.027568,-1.059815
258705.859624,0.21720321,-0.72254574,-10.21940073,-0.188932,0.037672,0.001057,-46.637177,157.135071,-171.217636,60.187686,24.830151,13.893885,12.508017,-1.0,-1.0,101.157303,1.152052,0.063682,0.02398,-1.060848
258705.899593,0.41449212,-1.00949805,-9.3821859,0.060193,0.102059,-0.043845,-46.261337,156.92659,-170.983261,60.187686,24.830151,13.893885,12.508017,-1.0,-1.0,101.157303,1.152052,0.070356,0.01968,-1.065378
258705.899593,0.41449212,-1.00949805,-9.3821859,0.060193,0.102059,-0.043845,-46.261337,156.92659,-170.983261,60.187686,24.830151,13.893885,12.508017,-1.0,-1.0,101.157303,1.152052,0.070356,0.01968,-1.065378
258705.939562,0.9541206,-0.7294323600000001,-9.61121016,-0.053225,-0.00297,0.048116,-46.20285,156.718964,-170.797455,60.187686,24.830151,13.893885,12.508017,-1.0,-1.0,101.157303,1.152052,0.06917,0.020505,-1.069294
258705.939562,0.9541206,-0.7294323600000001,-9.61121016,-0.053225,-0.00297,0.048116,-46.20285,156.718964,-170.797455,60.187686,24.830151,13.893885,12.508017,-1.0,-1.0,101.157303,1.152052,0.06917,0.020505,-1.069294
258705.979531,0.7095278700000001,-0.8189486100000001,-9.84891627,-0.09129,0.137949,0.045876,-45.886429,156.745956,-170.490723,60.187686,24.830151,13.893885,12.508017,-1.0,-1.0,101.157303,1.152052,0.071346,0.016899,-1.068866
258705.979531,0.7095278700000001,-0.8189486100000001,-9.84891627,-0.09129,0.137949,0.045876,-45.886429,156.745956,-170.490723,60.187686,24.830151,13.893885,12.508017,-1.0,-1.0,101.157303,1.152052,0.071346,0.016899,-1.068866
258705.999516,0.7577244000000001,-0.6620769,-9.68546205,-0.078493,0.040375,0.032639,-45.741974,156.736176,-170.19101,60.187686,24.830151,13.893885,12.508017,-1.0,-1.0,101.157303,1.152052,0.073723,0.01526,-1.067957
258706.019501,0.6635680199999999,-0.59485878,-9.576335610000001,-0.032992,-0.017414,0.043113,-45.634644,156.828751,-169.668961,60.187686,24.830151,13.893885,12.508017,-1.0,-1.0,101.157303,1.152052,0.073876,0.014026,-1.067184
258706.05947,1.3692013200000002,-0.5545985400000001,-9.40164894,-0.132033,-0.084566,0.037146,-45.515366,156.766205,-169.58725,60.187686,24.830151,13.893885,12.508017,-1.0,-1.0,101.157303,1.152052,0.07383,0.012083,-1.06597
258706.079454,1.21546881,-0.49098069000000005,-9.86239521,-0.185869,-0.162139,0.163384,-45.478683,156.965851,-169.195206,60.187686,24.830151,13.893885,12.508017,-1.0,-1.0,101.157303,1.152052,0.071829,0.009101,-1.06446
258706.099439,0.8095212,-0.6598304100000001,-10.673407529999999,-0.190436,-0.364905,0.197573,-45.800186,156.966888,-169.174423,60.187686,24.830151,13.893885,12.508017,-1.0,-1.0,101.157303,1.152052,0.06753,0.00542,-1.060645
258706.119423,0.95157,-0.48229884,-10.753790669999999,-0.077386,-0.188999,0.205328,-45.702118,156.780029,-168.921768,60.187686,24.830151,13.893885,12.508017,-1.0,-1.0,101.157303,1.152052,0.061108,0.002278,-1.056607
258706.139408,0.04850064,-0.59710527,-10.4057613,-0.016088,-0.115424,0.198011,-45.844559,156.815918,-168.933945,60.187686,24.830151,13.893885,12.508017,-1.0,-1.0,101.157303,1.152052,0.058132,0.001254,-1.052505
258706.159392,-0.22722903,-0.62914473,-10.361008080000001,0.07401,-0.367081,0.086844,-46.084244,156.586166,-168.899948,60.187686,24.830151,13.893885,12.508017,-1.0,-1.0,101.157303,1.152052,0.054534,0.00157,-1.049058
258706.179377,0.41868099000000003,-0.34263387,-9.850417199999999,0.200823,-0.511245,0.021699,-46.579178,156.35347,-168.6539,60.187686,24.830151,13.893885,12.508017,-1.0,-1.0,101.157303,1.152052,0.046191,0.003694,-1.047987
258706.199361,0.8599642200000001,-0.11810259,-9.56675124,0.140219,-0.323994,0.055235,-46.579178,156.35347,-168.6539,60.187686,24.830151,13.893885,12.508017,-1.0,-1.0,101.157303,1.152052,0.03648,0.007458,-1.047709
258706.219346,0.10432935000000002,-0.37048446,-9.405690660000001,-0.008943,-0.03324,0.109414,-46.467667,156.329514,-169.018738,60.187686,24.830151,13.893885,12.508017,-1.0,-1.0,101.157303,1.152052,0.03176,0.009619,-1.046343
258706.239331,0.53498835,-0.21420135,-10.24559343,-0.148155,-0.034982,0.08073,-46.5354,156.267929,-168.84404,60.187686,24.830151,13.893885,12.508017,-1.0,-1.0,101.157303,1.152052,0.031372,0.008742,-1.044434
258706.259315,0.44352972000000007,-0.1502892,-11.17126503,-0.057693,-0.16406,0.133239,-46.617065,155.999817,-168.449921,60.187686,24.830151,13.893885,12.508017,-1.0,-1.0,101.157303,1.152052,0.0304,0.005943,-1.042602
258706.2793,0.19295289,-0.08292393,-10.757979540000001,0.251036,-0.34645,0.148606,-46.833771,156.081329,-168.350739,60.187686,24.830151,13.893885,12.508017,-1.0,-1.0,101.157303,1.152052,0.026304,0.006274,-1.039918
258706.299284,-0.4366431,-0.29024847,-9.27635562,0.396142,-0.408994,0.148979,-47.18515,155.841568,-168.399445,60.187686,24.830151,13.893885,12.508017,-1.0,-1.0,101.157303,1.152052,0.018794,0.012456,-1.037109
258706.319269,-0.41344245,-0.28800198,-9.12876417,0.218806,-0.261073,0.045232,-47.51709,155.473572,-168.770981,60.187686,24.830151,13.893885,12.508017,-1.0,-1.0,101.157303,1.152052,0.011145,0.019506,-1.034833
258706.339253,-0.12109464000000002,-0.0865242,-9.620196120000001,0.052943,-0.092551,0.016145,-47.519745,155.42746,-168.357788,60.187686,24.830151,13.893885,12.508017,-1.0,-1.0,101.157303,1.152052,0.007475,0.022812,-1.034404
258706.359238,-0.06840513000000001,-0.28336185,-10.12030011,0.077852,-0.191133,0.024564,-47.827347,155.259369,-168.239578,60.187686,24.830151,13.893885,12.508017,-1.0,-1.0,101.157089,1.167906,0.005226,0.02388,-1.034145
258706.379222,-0.16286562,-0.28874754,-10.272982950000001,0.189786,-0.238624,0.045837,-48.017365,155.197083,-168.3293,60.187686,24.830151,13.893885,12.508017,-1.0,-1.0,101.157089,1.167906,0.000752,0.025872,-1.033644
258706.399207,-0.22438413000000001,-0.35535744,-9.97346403,0.164602,-0.102757,0.026159,-48.04451,154.922791,-168.289734,60.187686,24.830151,13.893885,12.508017,-1.0,-1.0,101.157089,1.167906,-0.003147,0.029553,-1.032983
258706.419191,-0.45355554,-0.52331445,-10.14320646,0.167406,-0.145469,0.030587,-48.1828,154.644638,-168.456192,60.187686,24.830151,13.893885,12.508017,-1.0,-1.0,101.157089,1.167906,-0.006095,0.032609,-1.032421
258706.439176,-0.5846858100000001,-0.68212854,-9.609120630000001,0.162807,-0.189278,-0.002239,-48.343643,154.589691,-168.27562,60.187686,24.830151,13.893885,12.508017,-1.0,-1.0,101.157089,1.167906,-0.009428,0.035955,-1.031976
258706.459161,-0.05988024,-0.46044216,-8.93192652,0.09917,-0.211113,0.011688,-48.489761,154.549164,-168.342896,60.187686,24.830151,13.893885,12.508017,-1.0,-1.0,101.157089,1.167906,-0.013262,0.038858,-1.032232
258706.479145,-0.83556675,-0.44621766,-9.977947200000001,-0.165174,0.060344,-0.027087,-48.380142,154.649551,-168.39888,60.187686,24.830151,13.893885,12.508017,-1.0,-1.0,101.157089,1.167906,-0.017446,0.039654,-1.031885
258706.49913,-0.33246090000000006,-0.47046798,-10.129737330000001,-0.13876,0.082142,-0.083703,-48.316544,154.615875,-168.43132,60.187686,24.830151,13.893885,12.508017,-1.0,-1.0,101.157089,1.167906,-0.016449,0.036187,-1.032889
258706.519114,0.23336028,-0.24309180000000002,-10.00085355,-0.048222,0.018379,-0.084825,-48.429306,154.722519,-168.197449,60.187686,24.830151,13.893885,12.508017,-1.0,-1.0,101.157089,1.167906,-0.015074,0.033724,-1.034896
258706.539099,-0.20896281000000003,-0.38395359,-9.76988691,-0.043117,-0.025303,-0.056863,-48.160324,154.766754,-168.618805,60.187686,24.830151,13.893885,12.508017,-1.0,-1.0,101.157089,1.167906,-0.014911,0.032855,-1.036496
258706.559083,-0.27977139,-0.12049623000000001,-9.7926363,-0.03058,-0.03785,-0.0522,-48.230133,154.816315,-168.109818,60.187686,24.830151,13.893885,12.508017,-1.0,-1.0,101.157089,1.167906,-0.015479,0.032002,-1.03777
258706.579068,-0.25102809000000004,-0.27692649,-9.872715330000002,-0.017058,-0.044985,-0.064656,-48.269852,155.030533,-168.111816,60.187686,24.830151,13.893885,12.508017,-1.0,-1.0,101.157089,1.167906,-0.016218,0.031397,-1.038947
258706.579068,-0.25102809000000004,-0.27692649,-9.872715330000002,-0.017058,-0.044985,-0.064656,-48.269852,155.030533,-168.111816,60.187686,24.830151,13.893885,12.508017,-1.0,-1.0,101.157089,1.167906,-0.016218,0.031397,-1.038947
258706.579068,-0.25102809000000004,-0.27692649,-9.872715330000002,-0.017058,-0.044985,-0.064656,-48.269852,155.030533,-168.111816,60.187686,24.830151,13.893885,12.508017,-1.0,-1.0,101.157089,1.167906,-0.016218,0.031397,-1.038947
258706.619037,0.07005321,-0.30835773000000005,-9.48697632,-0.077804,0.015148,-0.08577,-48.24408,155.032715,-168.095001,60.187686,24.830151,13.893885,12.508017,-1.0,-1.0,101.157089,1.167906,-0.017325,0.030644,-1.042155
258706.639022,-0.34772526,-0.26525259,-9.621245790000001,-0.153451,0.034363,-0.050244,-48.013916,155.242508,-168.336838,60.187686,24.830151,13.893885,12.508017,-1.0,-1.0,101.157089,1.167906,-0.016771,0.028619,-1.043776
258706.639022,-0.34772526,-0.26525259,-9.621245790000001,-0.153451,0.034363,-0.050244,-48.013916,155.242508,-168.336838,60.187686,24.830151,13.893885,12.508017,-1.0,-1.0,101.157089,1.167906,-0.016771,0.028619,-1.043776
258706.659006,-0.29593827,-0.14010642,-10.01327301,-0.163886,0.019031,-0.038131,-48.103104,155.216629,-168.347137,60.187686,24.830151,13.893885,12.508017,-1.0,-1.0,101.157089,1.167906,-0.016067,0.025436,-1.044927
258706.738944,-0.01018278,-0.23696055000000002,-9.52813908,-0.04926,0.034577,-0.077477,-47.753067,155.571686,-168.092361,60.187686,24.830151,13.893885,12.508017,-1.0,-1.0,101.157089,1.167906,-0.016052,0.021649,-1.050543
258706.758929,-0.18186759,-0.10777265999999999,-9.65537478,-0.11038,0.077612,-0.079762,-47.649918,155.56897,-168.563629,60.187686,24.830151,13.893885,12.508017,-1.0,-1.0,101.157089,1.167906,-0.015051,0.020344,-1.052171
258706.778914,-0.22931856000000003,-0.28201788,-9.88380063,-0.133079,0.067688,-0.062149,-47.534866,155.617096,-168.21843,60.187686,24.830151,13.893885,12.508017,-1.0,-1.0,101.157089,1.167906,-0.013386,0.017911,-1.053776
258706.798898,-0.20223315000000003,-0.20881566000000001,-9.84967164,-0.119391,0.040142,-0.067249,-47.52742,155.758652,-168.332611,60.187686,24.830151,13.893885,12.508017,-1.0,-1.0,101.157089,1.167906,-0.012104,0.015281,-1.055178
258706.818883,-0.01542132,-0.06840513000000001,-9.723632760000001,-0.128681,0.033951,-0.071216,-47.474869,155.934677,-168.267975,60.187686,24.830151,13.893885,12.508017,-1.0,-1.0,101.157089,1.167906,-0.011341,0.01288,-1.056708
258706.838867,-0.28665801,0.01377324,-9.704022570000001,-0.150702,0.052327,-0.07556,-47.198853,156.056305,-168.232559,60.187686,24.830151,13.893885,12.508017,-1.0,-1.0,101.157089,1.167906,-0.010565,0.010104,-1.058243
258706.858852,0.0031392000000000004,-0.11376657,-12.29992515,-0.157942,0.051201,-0.10311,-47.368149,156.081482,-168.188019,60.187686,24.830151,13.893885,12.508017,-1.0,-1.0,101.157089,1.167906,-0.009487,0.007007,-1.060031
258706.858852,0.0031392000000000004,-0.11376657,-12.29992515,-0.157942,0.051201,-0.10311,-47.368149,156.081482,-168.188019,60.187686,24.830151,13.893885,12.508017,-1.0,-1.0,101.157089,1.167906,-0.009487,0.007007,-1.060031
258706.898821,-0.03547296,-0.09774684000000002,-9.847268190000001,0.038253,-0.048112,-0.050938,-47.213257,156.307343,-168.144516,60.187686,24.830151,13.893885,12.508017,-1.0,-1.0,101.157089,1.167906,-0.010657,0.007569,-1.063164
258706.918805,-0.11106882000000001,-0.0076321800000000006,-9.853860509999999,0.048931,-0.027812,-0.042893,-47.274612,156.193527,-168.097504,60.187686,24.830151,13.893885,12.508017,-1.0,-1.0,101.157089,1.167906,-0.011528,0.008334,-1.064243
258706.93879,-0.20747169000000001,-0.18965673,-9.87196977,0.045432,-0.034208,-0.051506,-47.360168,156.135513,-168.187973,60.187686,24.830151,13.893885,12.508017,-1.0,-1.0,101.157089,1.167906,-0.01206,0.009242,-1.065228
258706.958775,0.13307265000000001,-0.13097331,-9.877061160000002,0.056911,0.003779,-0.053926,-47.448166,155.98497,-168.195602,60.187686,24.830151,13.893885,12.508017,-1.0,-1.0,101.157089,1.167906,-0.012597,0.010148,-1.066353
258706.978759,-0.27901602,-0.10298538000000002,-9.8159841,0.05579,0.007787,-0.029465,-47.176697,156.050797,-167.973709,60.187686,24.830151,13.893885,12.508017,-1.0,-1.0,101.157089,1.167906,-0.012425,0.011263,-1.067354
258706.998744,0.02889045,-0.11001915,-9.873765,0.058592,0.029338,-0.039511,-47.242905,156.275482,-167.982346,60.187686,24.830151,13.893885,12.508017,-1.0,-1.0,101.157089,1.167906,-0.012204,0.012313,-1.06806
258707.018728,-0.36808101,-0.020355750000000002,-10.00145196,0.086864,0.076713,-0.014316,-47.217972,156.137909,-168.094269,60.187686,24.830151,13.893885,12.508017,-1.0,-1.0,101.157089,1.167906,-0.011321,0.013554,-1.068804
258707.038713,-0.21884148000000003,-0.06287229,-9.76254903,0.104161,0.138529,-0.052167,-47.061844,156.125977,-168.213028,60.187686,24.830151,13.893885,12.508017,-1.0,-1.0,101.157089,1.167906,-0.009216,0.015494,-1.069413
258707.058697,0.18291726,-0.31449879,-9.73260891,0.047703,0.055602,-0.058742,-47.307999,156.039215,-168.080658,60.187686,24.830151,13.893885,12.508017,-1.0,-1.0,101.157089,1.167906,-0.006677,0.017361,-1.070602
258707.078682,0.08667135000000001,-0.23665644,-9.78185511,0.009641,0.001594,-0.025026,-47.10524,156.052109,-168.138428,60.187686,24.830151,13.893885,12.508017,-1.0,-1.0,101.157089,1.167906,-0.005766,0.018076,-1.07167
258707.098667,-0.09131148000000001,-0.15313410000000002,-9.78261048,-0.00337,-0.018798,-0.01423,-47.059021,156.017258,-167.75325,60.187686,24.830151,13.893885,12.508017,-1.0,-1.0,101.157089,1.167906,-0.005796,0.018144,-1.072209
258707.138636,-0.0290376,-0.18022932,-9.94561344,0.018609,0.035719,-0.009791,-47.120728,155.959747,-168.159149,60.187686,24.830151,13.893885,12.508017,-1.0,-1.0,101.157089,1.167906,-0.006447,0.017981,-1.073266
258707.138636,-0.0290376,-0.18022932,-9.94561344,0.018609,0.035719,-0.009791,-47.120728,155.959747,-168.159149,60.187686,24.830151,13.893885,12.508017,-1.0,-1.0,101.157089,1.167906,-0.006447,0.017981,-1.073266
258707.15862,0.0059841,-0.20043792,-9.70447383,0.04075,0.117504,-0.030126,-46.985641,156.141922,-168.06662,60.187686,24.830151,13.893885,12.508017,-1.0,-1.0,101.157089,1.167906,-0.005302,0.018394,-1.073614
