timestamp,accel_x,accel_y,accel_z,gyro_x,gyro_y,gyro_z,mag_x,mag_y,mag_z,gps_lat,gps_lon,gps_alt,gps_accuracy,gps_speed,gps_course,pressure,altitude,roll,pitch,yaw
259540.912332,-0.07050447,-0.18441819,-9.84382488,0.002736,-0.004725,0.004871,-46.178375,160.777664,-169.142929,60.187749,24.830332,15.529337,17.340181,0.0,-1.0,101.15593,1.265672,-0.00759,0.018782,-1.192481
259540.932318,-0.07229970000000001,-0.18561501000000002,-9.80071974,0.003364,0.002335,0.002145,-45.941925,160.568649,-168.960159,60.187749,24.830332,15.529337,17.340181,0.0,-1.0,101.15593,1.265672,-0.007529,0.018807,-1.192513
259540.952304,-0.08786817,-0.18980388,-9.83470158,0.002512,-0.002577,0.005189,-46.005249,160.765686,-169.082397,60.187749,24.830332,15.529337,17.340181,0.0,-1.0,101.15593,1.265672,-0.007581,0.018776,-1.192513
259540.97229,-0.04730382,-0.19743606000000002,-9.79457868,0.003925,0.003575,0.005327,-45.942825,160.802444,-168.985458,60.187749,24.830332,15.529337,17.340181,0.0,-1.0,101.15593,1.265672,-0.007512,0.018809,-1.192487
259540.992275,-0.0754389,-0.19459116,-9.838890450000001,0.00185,-0.000436,0.003236,-45.899078,160.740646,-168.93544,60.187749,24.830332,15.529337,17.340181,0.0,-1.0,101.15593,1.265672,-0.007552,0.018795,-1.192487
259541.012261,-0.07499745000000001,-0.18726309,-9.801171,0.004078,0.000669,0.005466,-46.032578,160.942963,-168.917221,60.187749,24.830332,15.529337,17.340181,0.0,-1.0,101.15593,1.265672,-0.00752,0.018811,-1.192494
259541.032247,-0.08442486000000002,-0.18262296000000003,-9.84113694,0.003004,-0.001214,0.003392,-46.21257,160.596878,-169.036987,60.187749,24.830332,15.529337,17.340181,0.0,-1.0,101.15593,1.265672,-0.007539,0.018812,-1.192481
259541.052233,-0.03517866,-0.18590931,-9.80222067,0.002543,0.001093,0.003804,-46.216064,160.766953,-169.029526,60.187749,24.830332,15.529337,17.340181,0.0,-1.0,101.15593,1.265672,-0.007512,0.018816,-1.19249
259541.072219,-0.07334937000000001,-0.18590931,-9.83035575,0.00318,-0.001228,0.005775,-46.0448,160.604248,-169.202164,60.187749,24.830332,15.529337,17.340181,0.0,-1.0,101.15593,1.265672,-0.007536,0.018797,-1.192502
259541.092205,-0.08906499000000001,-0.19819143,-9.8242245,0.004953,0.000451,0.004321,-46.245331,160.618607,-169.095428,60.187749,24.830332,15.529337,17.340181,0.0,-1.0,101.15593,1.265672,-0.007516,0.018813,-1.192503
259541.11219,-0.07619427,-0.18157329000000003,-9.81554265,0.003653,-0.000554,0.006346,-46.112183,160.762405,-168.84726,60.187749,24.830332,15.529337,17.340181,0.0,-1.0,101.15593,1.265672,-0.007524,0.018818,-1.192496
259541.152162,-0.04955031,-0.17139051000000002,-9.82616688,0.003776,0.000301,0.004704,-46.194214,160.733444,-168.898026,60.187749,24.830332,15.529337,17.340181,0.0,-1.0,101.15593,1.265672,-0.007493,0.018836,-1.192492
259541.172148,-0.07289811,-0.19145196,-9.81059841,0.003027,0.001175,0.00354,-46.337296,160.578262,-169.260635,60.187749,24.830332,15.529337,17.340181,0.0,-1.0,101.15593,1.265672,-0.007479,0.018824,-1.192492
259541.192134,-0.08038314,-0.19594493999999998,-9.81823059,0.004255,-0.000421,0.004136,-46.238342,160.60788,-168.725479,60.187749,24.830332,15.529337,17.340181,0.0,-1.0,101.15593,1.265672,-0.007489,0.018836,-1.192477
259541.21212,-0.05883057,-0.18157329000000003,-9.799218810000001,0.004967,-0.000956,0.005358,-46.138672,160.560852,-168.818771,60.187749,24.830332,15.529337,17.340181,0.0,-1.0,101.15593,1.265672,-0.007472,0.018855,-1.192468
259541.232105,-0.06825798,-0.18606627000000003,-9.82661814,0.003399,-0.001526,0.003354,-46.209915,160.593475,-168.624954,60.187749,24.830332,15.529337,17.340181,0.0,-1.0,101.15593,1.265672,-0.007485,0.018846,-1.192469
259541.252091,-0.08756406,-0.17977806,-9.82257642,0.004724,0.000718,0.005201,-46.187073,160.43692,-168.83136,60.187749,24.830332,15.529337,17.340181,0.0,-1.0,101.15593,1.265672,-0.007471,0.018843,-1.192459
259541.272077,-0.07409493,-0.17827713000000003,-9.79428438,0.003547,-0.000862,0.004814,-46.184204,160.570343,-168.734482,60.187749,24.830332,15.529337,17.340181,0.0,-1.0,101.15593,1.265672,-0.007473,0.018852,-1.192457
259541.292063,-0.04775508,-0.18995103,-9.81194238,0.002768,-7.6e-05,0.004716,-46.149567,160.592209,-168.961029,60.187749,24.830332,15.529337,17.340181,0.0,-1.0,101.15593,1.265672,-0.007472,0.01886,-1.192461
259541.312049,-0.07439904,-0.18037647,-9.83140542,0.0043,0.000986,0.003392,-46.225662,160.364136,-168.983643,60.187749,24.830332,15.529337,17.340181,0.0,-1.0,101.15593,1.265672,-0.007466,0.018848,-1.192468
259541.332035,-0.08277678,-0.18561501000000002,-9.822272309999999,0.003803,0.000156,0.003962,-46.210617,160.333542,-169.163269,60.187749,24.830332,15.529337,17.340181,0.0,-1.0,101.15593,1.265672,-0.00746,0.018848,-1.192481
259541.35202,-0.07454619,-0.17858124000000003,-9.82377324,0.002672,0.001133,0.004087,-46.043747,160.612686,-169.14566,60.187749,24.830332,15.529337,17.340181,0.0,-1.0,101.15593,1.265672,-0.007462,0.01885,-1.192473
259541.372006,-0.06316659000000001,-0.17603064000000002,-9.81449298,0.002589,0.000315,0.005237,-46.190445,160.650162,-169.060822,60.187749,24.830332,15.529337,17.340181,0.0,-1.0,101.15593,1.265672,-0.007458,0.018845,-1.192471
259541.391992,-0.07768539,-0.18186759,-9.82406754,0.00226,-0.000328,0.004008,-46.056351,160.661545,-169.076584,60.187749,24.830332,15.529337,17.340181,0.0,-1.0,101.15593,1.265672,-0.007456,0.01884,-1.192472
259541.411978,-0.07095573000000001,-0.1790325,-9.828109260000002,0.003783,0.000323,0.004062,-46.221954,160.587631,-169.13353,60.187749,24.830332,15.529337,17.340181,0.0,-1.0,101.15593,1.265672,-0.007453,0.01883,-1.19247
259541.431964,-0.06601149,-0.19250163000000003,-9.831101310000001,0.003231,0.00126,0.004555,-46.09494,160.720703,-169.079361,60.187749,24.830332,15.529337,17.340181,0.0,-1.0,101.15593,1.265672,-0.007432,0.018837,-1.192474
259541.45195,-0.06406911000000001,-0.18561501000000002,-9.81373761,0.002945,0.00025,0.004535,-46.166397,160.577377,-168.988876,60.187749,24.830332,15.529337,18.364153,0.0,-1.0,101.15593,1.265672,-0.007427,0.018828,-1.192471
259541.471935,-0.07110288000000001,-0.18636057,-9.831709530000001,0.002344,-0.000542,0.002466,-46.379318,160.580994,-168.981979,60.187749,24.830332,15.529337,18.364153,0.0,-1.0,101.15593,1.265672,-0.007419,0.018824,-1.192486
259541.491921,-0.07110288000000001,-0.18396693,-9.81434583,0.003298,0.00069,0.005022,-46.143234,160.527557,-169.008698,60.187749,24.830332,15.529337,18.364153,0.0,-1.0,101.15593,1.265672,-0.007415,0.01883,-1.192499
259541.511907,-0.07260381,-0.18905832000000003,-9.814787280000001,0.002873,0.000582,0.004282,-46.140549,160.558838,-168.701111,60.187749,24.830332,15.529337,18.364153,0.0,-1.0,101.15593,1.265672,-0.007411,0.018827,-1.192502
259541.531893,-0.05583852,-0.18007236000000001,-9.81194238,0.003998,0.000122,0.005403,-46.140549,160.558838,-168.701111,60.187749,24.830332,15.529337,18.364153,0.0,-1.0,101.15593,1.265672,-0.00741,0.018818,-1.192496
259541.551879,-0.07244685000000001,-0.16899687,-9.81928026,0.002621,0.001489,0.004045,-46.125198,160.77179,-168.968155,60.187749,24.830332,15.529337,18.364153,0.0,-1.0,101.15593,1.265672,-0.007417,0.018803,-1.192507
259541.571865,-0.07110288000000001,-0.18486945000000002,-9.8302086,0.003673,0.0005,0.00401,-46.204437,160.706543,-168.934372,60.187749,24.830332,15.529337,18.364153,0.0,-1.0,101.15593,1.265672,-0.007401,0.018809,-1.192505
259541.59185,-0.0751446,-0.18741024,-9.81583695,0.002922,0.000148,0.005188,-46.208176,160.616287,-169.037964,60.187749,24.830332,15.529337,18.364153,0.0,-1.0,101.15593,1.265672,-0.007401,0.018815,-1.1925
259541.611836,-0.06900354,-0.19190322,-9.82676529,0.003708,-0.001614,0.004203,-46.166107,160.582397,-168.994186,60.187749,24.830332,15.529337,18.364153,0.0,-1.0,101.15593,1.265672,-0.007406,0.018816,-1.1925
259541.631822,-0.06825798,-0.17678601,-9.81777933,0.001535,-0.001004,0.004241,-46.377274,160.648514,-168.694366,60.187749,24.830332,15.529337,18.364153,0.0,-1.0,101.15593,1.265672,-0.007419,0.018806,-1.192492
259541.651808,-0.06436341000000001,-0.18022932,-9.81059841,0.00271,0.000301,0.004794,-46.227356,160.612915,-168.668411,60.187749,24.830332,15.529337,18.364153,0.0,-1.0,101.15593,1.265672,-0.007421,0.018794,-1.192477
259541.671794,-0.06242103,-0.18471249,-9.83290635,0.003361,-1.5e-05,0.004269,-46.138779,160.760193,-168.865417,60.187749,24.830332,15.529337,18.364153,0.0,-1.0,101.15593,1.265672,-0.007424,0.018801,-1.192469
259541.69178,-0.05912487,-0.18531090000000003,-9.81688662,0.00243,0.001193,0.004906,-46.074936,160.81015,-168.612518,60.187749,24.830332,15.529337,18.364153,0.0,-1.0,101.15593,1.265672,-0.007417,0.01881,-1.192461
259541.711765,-0.07679268,-0.18875421000000003,-9.803417490000001,0.002893,0.00117,0.004552,-46.244827,160.894913,-168.700241,60.187749,24.830332,15.529337,18.364153,0.0,-1.0,101.15593,1.265672,-0.007409,0.018814,-1.192475
259541.731751,-0.0754389,-0.18516375000000002,-9.82721655,0.00449,0.000561,0.005152,-46.202484,160.955719,-168.771973,60.187749,24.830332,15.529337,18.364153,0.0,-1.0,101.15593,1.265672,-0.007409,0.018817,-1.192474
259541.751737,-0.06840513000000001,-0.18726309,-9.81449298,0.002045,0.000214,0.003523,-46.228943,160.826828,-168.595062,60.187749,24.830332,15.529337,18.364153,0.0,-1.0,101.15593,1.265672,-0.007407,0.0188,-1.192481
259541.771723,-0.051198389999999996,-0.19788732,-9.813590460000002,0.002902,-0.000814,0.003771,-46.200745,160.853546,-168.738968,60.187749,24.830332,15.529337,18.364153,0.0,-1.0,101.15593,1.265672,-0.007413,0.018796,-1.192475
259541.791709,-0.07110288000000001,-0.16989939,-9.81718092,0.002423,-0.001088,0.005386,-46.227631,160.765305,-168.746445,60.187749,24.830332,15.529337,18.364153,0.0,-1.0,101.15593,1.265672,-0.007424,0.018783,-1.192451
259541.83168,-0.06151851,-0.18097488,-9.816141060000001,0.001975,0.001758,0.005043,-46.283768,160.850845,-168.539642,60.187749,24.830332,15.529337,18.364153,0.0,-1.0,101.155663,1.28681,-0.007424,0.018792,-1.192452
259541.851666,-0.05433759,-0.17094906,-9.81793629,0.004173,-0.000156,0.004165,-46.235794,160.766479,-168.67247,60.187749,24.830332,15.529337,18.364153,0.0,-1.0,101.155663,1.28681,-0.007428,0.018783,-1.192467
259541.871652,-0.08172711,-0.19518957000000003,-9.82466595,0.001576,0.000606,0.004682,-46.003632,160.743195,-168.66774,60.187749,24.830332,15.529337,18.364153,0.0,-1.0,101.155663,1.28681,-0.007423,0.018774,-1.192481
259541.891638,-0.06706116000000001,-0.19040229,-9.8014653,0.003198,-0.000424,0.005497,-46.143326,160.940872,-168.413116,60.187749,24.830332,15.529337,18.364153,0.0,-1.0,101.155663,1.28681,-0.007433,0.018752,-1.192473
259541.911624,-0.08203122,-0.18336852,-9.80565417,0.003436,0.000291,0.005065,-46.061874,160.881104,-168.918762,60.187749,24.830332,15.529337,18.364153,0.0,-1.0,101.155663,1.28681,-0.00743,0.018752,-1.192455
259541.931609,-0.06256818,-0.18905832000000003,-9.808499070000002,0.001716,-0.000325,0.0024,-46.181671,160.615356,-168.711594,60.187749,24.830332,15.529337,18.364153,0.0,-1.0,101.155663,1.28681,-0.007439,0.01875,-1.192463
259541.951595,-0.08023599000000001,-0.18650772000000002,-9.8245188,0.002789,-0.00163,0.004148,-46.130569,160.857986,-168.713562,60.187749,24.830332,15.529337,18.364153,0.0,-1.0,101.155663,1.28681,-0.007449,0.018747,-1.192466
259541.971581,-0.08098155,-0.17303859,-9.81554265,0.003479,7.3e-05,0.0041,-46.151703,160.689407,-169.041672,60.187749,24.830332,15.529337,18.364153,0.0,-1.0,101.155663,1.28681,-0.007452,0.01876,-1.192456
259541.991567,-0.06720831000000001,-0.18172044,-9.799375770000001,0.003056,-4.3e-05,0.003907,-46.138641,160.792801,-168.962112,60.187749,24.830332,15.529337,18.364153,0.0,-1.0,101.155663,1.28681,-0.007465,0.018758,-1.192442
259542.011553,-0.06856209,-0.18741024,-9.823027680000001,0.002979,-0.000404,0.003474,-46.26358,160.68457,-168.949188,60.187749,24.830332,15.529337,18.364153,0.0,-1.0,101.155663,1.28681,-0.00747,0.018769,-1.192437
259542.031538,-0.05538726,-0.18291726,-9.81404172,0.003141,8.3e-05,0.005291,-45.905884,160.785675,-169.011902,60.187749,24.830332,15.529337,18.364153,0.0,-1.0,101.155663,1.28681,-0.007479,0.018772,-1.192444
259542.051524,-0.07739109000000001,-0.1881558,-9.80476146,0.003325,-0.000999,0.004618,-46.256058,160.853149,-168.991379,60.187749,24.830332,15.529337,18.364153,0.0,-1.0,101.155663,1.28681,-0.007491,0.018784,-1.192439
259542.07151,-0.06780672,-0.1907064,-9.81059841,0.00374,0.0011,0.00516,-46.264786,160.798141,-168.915939,60.187749,24.830332,15.529337,18.364153,0.0,-1.0,101.155663,1.28681,-0.007489,0.018788,-1.192435
259542.091496,-0.06825798,-0.17633475,-9.81209934,0.003756,0.000239,0.005477,-46.260529,160.598282,-169.022095,60.187749,24.830332,15.529337,18.364153,0.0,-1.0,101.155663,1.28681,-0.00749,0.018774,-1.192439
259542.111482,-0.07139718,-0.18695898,-9.81643536,0.003515,0.001532,0.00434,-46.341705,160.722824,-169.091751,60.187749,24.830332,15.529337,18.364153,0.0,-1.0,101.155663,1.28681,-0.00748,0.018768,-1.192455
259542.131468,-0.07020036,-0.18441819,-9.80610543,0.003088,-0.000262,0.004336,-46.412918,160.684479,-168.888412,60.187749,24.830332,15.529337,18.364153,0.0,-1.0,101.155663,1.28681,-0.00748,0.018762,-1.192476
259542.151453,-0.08322804,-0.18666468,-9.815238540000001,0.004032,0.001436,0.003246,-46.248062,160.785355,-169.262329,60.187749,24.830332,15.529337,18.364153,0.0,-1.0,101.155663,1.28681,-0.007482,0.018782,-1.192487
259542.171439,-0.07693983,-0.18471249,-9.820477080000002,0.00382,0.000678,0.004713,-46.473038,160.783401,-168.99353,60.187749,24.830332,15.529337,18.364153,0.0,-1.0,101.155663,1.28681,-0.007492,0.018775,-1.192489
259542.191425,-0.06960195,-0.17603064000000002,-9.816582510000002,0.003613,-0.001173,0.003818,-46.330841,160.752319,-168.990219,60.187749,24.830332,15.529337,18.364153,0.0,-1.0,101.155663,1.28681,-0.007501,0.018776,-1.192479
259542.211411,-0.07020036,-0.18441819,-9.81808344,0.003979,0.000315,0.004356,-46.388992,160.740875,-169.017456,60.187749,24.830332,15.529337,18.364153,0.0,-1.0,101.155663,1.28681,-0.007494,0.018799,-1.192469
259542.231397,-0.07005321,-0.19250163000000003,-9.814787280000001,0.004601,0.001801,0.004379,-46.388992,160.740875,-169.017456,60.187749,24.830332,15.529337,18.364153,0.0,-1.0,101.155663,1.28681,-0.00748,0.018813,-1.192476
259542.231397,-0.07005321,-0.19250163000000003,-9.814787280000001,0.004601,0.001801,0.004379,-46.388992,160.740875,-169.017456,60.187749,24.830332,15.529337,18.364153,0.0,-1.0,101.155663,1.28681,-0.00748,0.018813,-1.192476
259542.271368,-0.055230299999999996,-0.18486945000000002,-9.821821049999999,0.003121,-0.000722,0.004013,-46.140564,160.838318,-168.956818,60.187749,24.830332,15.529337,18.364153,0.0,-1.0,101.155663,1.28681,-0.007486,0.018809,-1.192493
259542.291354,-0.06840513000000001,-0.18980388,-9.81643536,0.003368,-5.2e-05,0.003954,-46.208282,160.614288,-169.041977,60.187749,24.830332,15.529337,18.364153,0.0,-1.0,101.155663,1.28681,-0.007486,0.018814,-1.192486
259542.31134,-0.0751446,-0.18396693,-9.81898596,0.003147,-0.000991,0.002745,-46.227417,160.941116,-168.810669,60.187749,24.830332,15.529337,18.364153,0.0,-1.0,101.155663,1.28681,-0.007489,0.01882,-1.192492
259542.331326,-0.07679268,-0.17992521,-9.811049670000001,0.002712,-0.000661,0.00497,-46.439758,160.746719,-168.647156,60.187749,24.830332,15.529337,18.364153,0.0,-1.0,101.155663,1.28681,-0.007492,0.018821,-1.192511
259542.351311,-0.06466752,-0.18217170000000002,-9.82152675,0.003987,0.001005,0.003031,-46.276611,160.740067,-168.930206,60.187749,24.830332,15.529337,18.364153,0.0,-1.0,101.155663,1.28681,-0.007491,0.018828,-1.192527
259542.371297,-0.07260381,-0.16750575,-9.817033770000002,0.00283,0.00103,0.004131,-46.080612,160.849487,-169.066132,60.187749,24.830332,15.529337,18.364153,0.0,-1.0,101.155663,1.28681,-0.007474,0.018829,-1.192519
259542.391283,-0.07289811,-0.17917965,-9.820477080000002,0.002358,-0.000966,0.004056,-46.261887,160.806229,-168.813522,60.187749,24.830332,15.529337,18.364153,0.0,-1.0,101.155663,1.28681,-0.007484,0.018823,-1.192525
259542.411269,-0.05852646,-0.19534653000000002,-9.818377739999999,0.002532,-0.000412,0.00491,-46.016098,160.877609,-168.546356,60.187749,24.830332,15.529337,18.364153,0.0,-1.0,101.155663,1.28681,-0.007495,0.018824,-1.192526
259542.431255,-0.07065162,-0.17947395,-9.80925444,0.003331,-0.000709,0.00545,-46.246414,160.836548,-168.650574,60.187749,24.830332,15.529337,18.364153,0.0,-1.0,101.155663,1.28681,-0.007503,0.018823,-1.192509
259542.451241,-0.06885639,-0.17753157,-9.82062423,0.00172,-0.000402,0.003977,-46.242416,160.744934,-168.693619,60.187749,24.830332,15.529337,18.351739,0.0,-1.0,101.155663,1.28681,-0.007504,0.018825,-1.192509
259542.471226,-0.06765957,-0.17782587000000002,-9.811795230000001,0.003995,0.000452,0.004696,-46.034988,160.943466,-168.914001,60.187749,24.830332,15.529337,18.351739,0.0,-1.0,101.155663,1.28681,-0.007499,0.01883,-1.192483
259542.491212,-0.06452037000000001,-0.1850166,-9.81014715,0.003019,-0.000206,0.003267,-46.108475,160.869186,-168.927139,60.187749,24.830332,15.529337,18.351739,0.0,-1.0,101.155663,1.28681,-0.007508,0.018833,-1.192489
259542.511198,-0.07260381,-0.18052362000000002,-9.81014715,0.002437,-0.000416,0.005349,-45.951492,160.856323,-168.742416,60.187749,24.830332,15.529337,18.351739,0.0,-1.0,101.155663,1.28681,-0.007503,0.018844,-1.192487
259542.531184,-0.07933347,-0.17872839,-9.81239364,0.004504,-0.000287,0.003765,-45.855179,160.829865,-168.903885,60.187749,24.830332,15.529337,18.351739,0.0,-1.0,101.155663,1.28681,-0.007514,0.018851,-1.192479
259542.551171,-0.07484049000000001,-0.18157329000000003,-9.800121330000001,0.002607,0.001341,0.002698,-45.977478,160.957565,-168.664413,60.187749,24.830332,15.529337,18.351739,0.0,-1.0,101.155663,1.28681,-0.007516,0.018846,-1.192489
259542.591142,-0.06406911000000001,-0.1790325,-9.830502899999999,0.003744,2.4e-05,0.004574,-46.010178,160.753815,-168.859299,60.187749,24.830332,15.529337,18.351739,0.0,-1.0,101.155663,1.28681,-0.007534,0.018839,-1.192503
259542.611128,-0.06107706,-0.18037647,-9.81059841,0.003178,7e-05,0.00285,-45.966721,160.870026,-168.8909,60.187749,24.830332,15.529337,18.351739,0.0,-1.0,101.155663,1.28681,-0.007526,0.018842,-1.192527
259542.631114,-0.06017454,-0.18022932,-9.80521272,0.002481,-0.000739,0.004106,-46.046066,160.688141,-168.653793,60.187749,24.830332,15.529337,18.351739,0.0,-1.0,101.155663,1.28681,-0.007543,0.018846,-1.19254
259542.6511,-0.06735546,-0.18636057,-9.81194238,0.003577,-4.3e-05,0.004169,-46.05957,160.671631,-168.693024,60.187749,24.830332,15.529337,18.351739,0.0,-1.0,101.155663,1.28681,-0.007543,0.018843,-1.192547
259542.671085,-0.062116920000000006,-0.19489527,-9.832150980000002,0.004313,-0.000683,0.005382,-46.05867,160.757736,-168.884583,60.187749,24.830332,15.529337,18.351739,0.0,-1.0,101.155663,1.28681,-0.007545,0.018839,-1.192537
259542.691071,-0.07454619,-0.17708031000000002,-9.80954874,0.003712,0.000242,0.004328,-45.866516,160.853195,-169.035355,60.187749,24.830332,15.529337,18.351739,0.0,-1.0,101.155663,1.28681,-0.00755,0.018844,-1.192527
259542.711057,-0.05972328,-0.18920547,-9.83290635,0.003029,-0.000399,0.004656,-46.162674,160.490173,-168.782059,60.187749,24.830332,15.529337,18.351739,0.0,-1.0,101.155663,1.28681,-0.007546,0.018838,-1.192537
259542.731043,-0.07963758,-0.17917965,-9.81254079,0.002494,-0.000368,0.005114,-46.025711,160.687271,-169.06192,60.187749,24.830332,15.529337,18.351739,0.0,-1.0,101.155663,1.28681,-0.007553,0.018844,-1.192528
259542.751029,-0.08172711,-0.19414971,-9.816739470000002,0.002467,0.000741,0.003551,-45.990891,160.656097,-169.177536,60.187749,24.830332,15.529337,18.351739,0.0,-1.0,101.155663,1.28681,-0.00755,0.018851,-1.192525
259542.771015,-0.07978473,-0.18590931,-9.813590460000002,0.002923,-0.000856,0.003033,-45.957108,160.522476,-168.931244,60.187749,24.830332,15.529337,18.351739,0.0,-1.0,101.155663,1.28681,-0.007547,0.018849,-1.192543
259542.791,-0.07260381,-0.17738442000000001,-9.81583695,0.002075,-0.001115,0.004771,-45.917465,160.783447,-169.00264,60.187749,24.830332,15.529337,18.351739,0.0,-1.0,101.155663,1.28681,-0.007542,0.018844,-1.19255
259542.810986,-0.07424208,-0.17963091,-9.819584370000001,0.00195,0.000833,0.005003,-45.836914,160.62352,-169.268005,60.187749,24.830332,15.529337,18.351739,0.0,-1.0,101.155663,1.28681,-0.00754,0.018838,-1.192547
259542.830972,-0.07184844,-0.17334270000000002,-9.81823059,0.004061,-0.000327,0.004537,-45.783463,160.588715,-168.715027,60.187749,24.830332,15.529337,18.351739,0.0,-1.0,101.155663,1.28681,-0.007543,0.018837,-1.192549
259542.850958,-0.07724394000000001,-0.17499078,-9.81449298,0.003222,0.000469,0.005402,-45.940155,160.621719,-168.94632,60.187749,24.830332,15.529337,18.351739,0.0,-1.0,101.155663,1.28681,-0.007541,0.018843,-1.192546
259542.870944,-0.06122421,-0.18007236000000001,-9.82616688,0.002406,-0.000345,0.004793,-46.075577,160.516861,-169.078949,60.187749,24.830332,15.529337,18.351739,0.0,-1.0,101.155663,1.28681,-0.00753,0.018835,-1.192547
259542.890929,-0.07275096,-0.18860706000000002,-9.81119682,0.003204,5.2e-05,0.00573,-46.10965,160.563141,-169.13765,60.187749,24.830332,15.529337,18.351739,0.0,-1.0,101.155556,1.297379,-0.007532,0.01884,-1.192531
259542.910915,-0.06301944000000001,-0.18126918000000003,-9.80626239,0.004299,-0.00071,0.002242,-45.948654,160.554123,-168.991104,60.187749,24.830332,15.529337,18.351739,0.0,-1.0,101.155556,1.297379,-0.007552,0.018846,-1.19253
259542.930901,-0.08547453,-0.18606627000000003,-9.80775351,0.003995,-0.001535,0.004369,-45.948654,160.554123,-168.991104,60.187749,24.830332,15.529337,18.351739,0.0,-1.0,101.155556,1.297379,-0.007561,0.018846,-1.19253
259542.950887,-0.0577809,-0.18755739000000002,-9.820182780000001,0.003527,0.000164,0.004555,-45.986725,160.566467,-168.995453,60.187749,24.830332,15.529337,18.351739,0.0,-1.0,101.155556,1.297379,-0.00755,0.018837,-1.192532
259542.970873,-0.06392196,-0.18471249,-9.80476146,0.002848,-0.000693,0.003755,-46.337067,160.570419,-169.109726,60.187749,24.830332,15.529337,18.351739,0.0,-1.0,101.155556,1.297379,-0.007553,0.018836,-1.192547
259542.990858,-0.05613282,-0.17678601,-9.81718092,0.003747,0.000755,0.003672,-46.067749,160.670166,-168.995743,60.187749,24.830332,15.529337,18.351739,0.0,-1.0,101.155556,1.297379,-0.007553,0.018847,-1.192554
259543.010844,-0.07589016,-0.19130481000000002,-9.807155100000001,0.003601,0.000188,0.003251,-45.809158,160.780396,-169.196335,60.187749,24.830332,15.529337,18.351739,0.0,-1.0,101.155556,1.297379,-0.007539,0.018854,-1.192559
259543.03083,-0.07603731000000001,-0.19250163000000003,-9.81373761,0.00214,0.000419,0.003324,-45.993088,160.731796,-169.062454,60.187749,24.830332,15.529337,18.351739,0.0,-1.0,101.155556,1.297379,-0.007545,0.01886,-1.192571
259543.050816,-0.06990606,-0.18022932,-9.819427410000001,0.003115,0.000157,0.004398,-46.093048,160.928436,-169.332581,60.187749,24.830332,15.529337,18.351739,0.0,-1.0,101.155556,1.297379,-0.007535,0.018868,-1.192575
259543.070802,-0.06571719000000001,-0.18277011,-9.81194238,0.00187,0.000579,0.003377,-45.845825,160.806824,-168.914581,60.187749,24.830332,15.529337,18.351739,0.0,-1.0,101.155556,1.297379,-0.007519,0.018857,-1.192583
259543.090787,-0.06930765,-0.18052362000000002,-9.81329616,0.003711,-0.000489,0.004697,-46.079147,160.882416,-168.947556,60.187749,24.830332,15.529337,18.351739,0.0,-1.0,101.155556,1.297379,-0.00751,0.018871,-1.192586
259543.110773,-0.07753824,-0.19085355,-9.820182780000001,0.003098,-1.8e-05,0.006516,-45.932861,161.007385,-168.988983,60.187749,24.830332,15.529337,18.351739,0.0,-1.0,101.155556,1.297379,-0.007505,0.018864,-1.192584
259543.130759,-0.06571719000000001,-0.19159911000000002,-9.811343970000001,0.003929,-6.9e-05,0.004886,-45.871628,160.89917,-168.619156,60.187749,24.830332,15.529337,18.351739,0.0,-1.0,101.155556,1.297379,-0.007513,0.018869,-1.192582
259543.150745,-0.07199559,-0.19145196,-9.820928340000002,0.002539,0.000327,0.004256,-46.001297,160.779556,-168.826736,60.187749,24.830332,15.529337,18.351739,0.0,-1.0,101.155556,1.297379,-0.007511,0.018857,-1.192575
259543.170731,-0.08397360000000001,-0.18037647,-9.80626239,0.003337,-0.001676,0.004405,-45.83522,160.790588,-168.691254,60.187749,24.830332,15.529337,18.351739,0.0,-1.0,101.155556,1.297379,-0.007526,0.018862,-1.192569
259543.210702,-0.06720831000000001,-0.18471249,-9.81209934,0.00316,-0.000106,0.005142,-45.969849,160.905411,-168.554474,60.187749,24.830332,15.529337,18.351739,0.0,-1.0,101.155556,1.297379,-0.007516,0.018855,-1.192565
259543.230688,-0.0779895,-0.17513793000000002,-9.810304109999999,0.003967,0.000478,0.004068,-46.110825,160.744507,-168.571304,60.187749,24.830332,15.529337,18.351739,0.0,-1.0,101.155556,1.297379,-0.007526,0.018853,-1.192574
259543.250674,-0.06675705000000001,-0.17977806,-9.821821049999999,0.002653,0.000856,0.004645,-45.977402,160.669601,-168.62056,60.187749,24.830332,15.529337,18.351739,0.0,-1.0,101.155556,1.297379,-0.007524,0.018863,-1.192567
259543.27066,-0.07079877000000001,-0.19429686000000002,-9.81987867,0.00195,0.000247,0.003555,-45.878601,160.871384,-168.781937,60.187749,24.830332,15.529337,18.351739,0.0,-1.0,101.155556,1.297379,-0.007537,0.018846,-1.192566
259543.290645,-0.07454619,-0.17872839,-9.817033770000002,0.003978,-0.000116,0.004882,-45.803345,161.016464,-168.481155,60.187749,24.830332,15.529337,18.351739,0.0,-1.0,101.155556,1.297379,-0.007522,0.018857,-1.192555
259543.310631,-0.0782838,-0.18097488,-9.81389457,0.003437,0.000558,0.003551,-45.91983,161.005875,-168.555832,60.187749,24.830332,15.529337,18.351739,0.0,-1.0,101.155556,1.297379,-0.007518,0.018857,-1.192557
259543.330617,-0.058977720000000004,-0.19549368000000003,-9.81329616,0.003904,0.001193,0.005687,-46.042633,160.741272,-168.77652,60.187749,24.830332,15.529337,18.351739,0.0,-1.0,101.155556,1.297379,-0.007499,0.018857,-1.192569
259543.350603,-0.07035732,-0.19429686000000002,-9.824371650000002,0.003976,0.000339,0.00216,-46.023987,160.933624,-168.788391,60.187749,24.830332,15.529337,18.351739,0.0,-1.0,101.155556,1.297379,-0.007488,0.018844,-1.192577
259543.370589,-0.07050447,-0.18576216000000004,-9.80131815,0.00404,0.000207,0.005402,-45.839706,160.817505,-168.592575,60.187749,24.830332,15.529337,18.351739,0.0,-1.0,101.155556,1.297379,-0.007491,0.018841,-1.192564
259543.390574,-0.07663572,-0.18606627000000003,-9.81494424,0.003304,0.000138,0.006022,-45.91629,160.810165,-168.46402,60.187749,24.830332,15.529337,18.351739,0.0,-1.0,101.155556,1.297379,-0.007485,0.018828,-1.19255
259543.41056,-0.06167547,-0.18037647,-9.81164808,0.003497,-0.000715,0.00407,-45.889313,160.858932,-168.568451,60.187749,24.830332,15.529337,18.351739,0.0,-1.0,101.155556,1.297379,-0.007488,0.018829,-1.192545
259543.430546,-0.0691605,-0.18905832000000003,-9.81014715,0.002988,0.000531,0.004204,-45.823425,160.637131,-168.938034,60.187749,24.830332,15.529337,18.351739,0.0,-1.0,101.155556,1.297379,-0.007476,0.018828,-1.192538
259543.450532,-0.07380063,-0.17094906,-9.818377739999999,0.003586,-0.000648,0.005161,-46.042221,160.761459,-168.887268,60.187749,24.830332,15.529337,18.342517,0.0,-1.0,101.155556,1.297379,-0.007478,0.018838,-1.192536
259543.470517,-0.07334937000000001,-0.18800865000000003,-9.81239364,0.003829,0.001058,0.005237,-46.028503,160.768402,-169.021103,60.187749,24.830332,15.529337,18.342517,0.0,-1.0,101.155556,1.297379,-0.007484,0.018827,-1.192511
259543.490503,-0.08532738,-0.19534653000000002,-9.816739470000002,0.002451,-8.7e-05,0.004482,-46.051636,160.656097,-169.235565,60.187749,24.830332,15.529337,18.342517,0.0,-1.0,101.155556,1.297379,-0.007478,0.0188,-1.192512
259543.510489,-0.06825798,-0.18695898,-9.815238540000001,0.002242,-0.000984,0.004315,-45.999588,160.615692,-168.827911,60.187749,24.830332,15.529337,18.342517,0.0,-1.0,101.155556,1.297379,-0.007471,0.018794,-1.192513
259543.530475,-0.06870924,-0.18351567000000002,-9.82601973,0.003316,0.000522,0.004713,-46.218338,160.565323,-169.135681,60.187749,24.830332,15.529337,18.342517,0.0,-1.0,101.155556,1.297379,-0.007464,0.018787,-1.192517
259543.550461,-0.07229970000000001,-0.17917965,-9.82542132,0.004064,0.000201,0.004137,-46.179092,160.542114,-168.524872,60.187749,24.830332,15.529337,18.342517,0.0,-1.0,101.155556,1.297379,-0.007454,0.018774,-1.192516
259543.570446,-0.07229970000000001,-0.18322137,-9.82241946,0.002387,0.000592,0.004088,-46.054184,160.556442,-168.683197,60.187749,24.830332,15.529337,18.342517,0.0,-1.0,101.155556,1.297379,-0.007458,0.018783,-1.192514
259543.590432,-0.07619427,-0.17963091,-9.831258270000001,0.002829,-0.000992,0.003246,-46.128845,160.743347,-168.86972,60.187749,24.830332,15.529337,18.342517,0.0,-1.0,101.155556,1.297379,-0.007449,0.018785,-1.192505
259543.610418,-0.06990606,-0.18950957999999998,-9.81194238,0.003371,-0.000457,0.004907,-46.284882,160.395264,-169.075348,60.187749,24.830332,15.529337,18.342517,0.0,-1.0,101.155556,1.297379,-0.007459,0.018796,-1.192502
259543.630404,-0.07993188000000001,-0.19549368000000003,-9.816141060000001,0.003843,0.000174,0.003092,-46.284882,160.395264,-169.075348,60.187749,24.830332,15.529337,18.342517,0.0,-1.0,101.155556,1.297379,-0.007452,0.018813,-1.192511
259543.65039,-0.06047865000000001,-0.18217170000000002,-9.812246490000001,0.002278,-0.00021,0.005033,-46.198883,160.463577,-168.9552,60.187749,24.830332,15.529337,18.342517,0.0,-1.0,101.155556,1.297379,-0.007461,0.018801,-1.192522
259543.670375,-0.06930765,-0.18126918000000003,-9.81418887,0.003171,-0.000218,0.00437,-45.983017,160.560883,-168.94519,60.187749,24.830332,15.529337,18.342517,0.0,-1.0,101.155556,1.297379,-0.007461,0.018796,-1.192518
259543.690361,-0.08607294000000001,-0.19429686000000002,-9.82078119,0.003986,-0.001135,0.003797,-46.157211,160.586685,-168.347107,60.187749,24.830332,15.529337,18.342517,0.0,-1.0,101.155556,1.297379,-0.007468,0.018801,-1.192516
259543.710347,-0.07184844,-0.18666468,-9.80775351,0.003924,-0.000108,0.004475,-46.174744,160.52446,-168.577209,60.187749,24.830332,15.529337,18.342517,0.0,-1.0,101.155556,1.297379,-0.00747,0.018806,-1.192528
259543.730333,-0.06930765,-0.18860706000000002,-9.8216739,0.002625,-0.000125,0.00466,-46.224258,160.544815,-168.775391,60.187749,24.830332,15.529337,18.342517,0.0,-1.0,101.155556,1.297379,-0.00748,0.01881,-1.192523
259543.750319,-0.06840513000000001,-0.17693316,-9.815238540000001,0.003666,0.00129,0.003795,-46.159912,160.681183,-168.752121,60.187749,24.830332,15.529337,18.342517,0.0,-1.0,101.155556,1.297379,-0.007477,0.018813,-1.192499
259543.770304,-0.062116920000000006,-0.1881558,-9.80805762,0.001311,-0.000642,0.005305,-46.041412,160.665878,-168.951736,60.187749,24.830332,15.529337,18.342517,0.0,-1.0,101.155556,1.297379,-0.007464,0.018816,-1.192498
259543.79029,-0.062273880000000004,-0.18322137,-9.82721655,0.0032,0.001959,0.003536,-46.054108,160.687271,-168.610565,60.187749,24.830332,15.529337,18.342517,0.0,-1.0,101.155556,1.297379,-0.007457,0.018817,-1.192496
259543.810276,-0.07275096,-0.18920547,-9.80805762,0.00234,-0.000182,0.004737,-46.293564,160.809647,-168.838501,60.187749,24.830332,15.529337,18.342517,0.0,-1.0,101.155556,1.297379,-0.007456,0.018825,-1.192484
259543.830262,-0.06466752,-0.19728891,-9.81404172,0.002472,-0.001619,0.004912,-46.041275,160.7771,-168.826935,60.187749,24.830332,15.529337,18.342517,0.0,-1.0,101.155556,1.297379,-0.007439,0.018826,-1.192483
259543.850248,-0.06795387,-0.17348985,-9.81643536,0.002407,-0.000876,0.00503,-46.171814,160.615555,-168.825333,60.187749,24.830332,15.529337,18.342517,0.0,-1.0,101.155556,1.297379,-0.007437,0.018816,-1.19248
259543.870233,-0.058232160000000005,-0.18531090000000003,-9.807155100000001,0.002964,-0.000396,0.00333,-46.110703,160.751129,-168.414886,60.187749,24.830332,15.529337,18.342517,0.0,-1.0,101.155556,1.297379,-0.007446,0.018811,-1.19248
259543.890219,-0.08232552,-0.18367263,-9.79697232,0.003581,-0.000259,0.00447,-45.978714,160.682526,-168.26236,60.187749,24.830332,15.529337,18.342517,0.0,-1.0,101.155556,1.297379,-0.007437,0.018813,-1.192488
259543.930191,-0.07229970000000001,-0.19489527,-9.83065986,0.00296,0.00042,0.003515,-46.073563,160.540543,-168.873657,60.187749,24.830332,15.529337,18.342517,0.0,-1.0,101.155556,1.297379,-0.007414,0.018824,-1.192503
259543.950176,-0.06541308000000001,-0.18217170000000002,-9.803417490000001,0.004872,0.000976,0.004262,-46.108261,160.75354,-168.676651,60.187749,24.830332,15.529337,18.342517,0.0,-1.0,101.155556,1.297379,-0.007406,0.018827,-1.192497
259543.970162,-0.07693983,-0.18126918000000003,-9.81373761,0.003123,0.000425,0.002825,-46.064392,160.757355,-168.7229,60.187749,24.830332,15.529337,18.342517,0.0,-1.0,101.155449,1.305306,-0.007399,0.018835,-1.192513
259543.990148,-0.07005321,-0.18367263,-9.811343970000001,0.003624,-0.00021,0.005494,-46.156265,160.714218,-168.551758,60.187749,24.830332,15.529337,18.342517,0.0,-1.0,101.155449,1.305306,-0.007396,0.018849,-1.192503
259544.010134,-0.06691401,-0.18336852,-9.816582510000002,0.001438,-0.00037,0.003692,-46.177414,160.618958,-168.506775,60.187749,24.830332,15.529337,18.342517,0.0,-1.0,101.155449,1.305306,-0.007393,0.018846,-1.19249
259544.03012,-0.06840513000000001,-0.18636057,-9.829610190000002,0.002496,0.001229,0.002941,-46.068405,160.657562,-168.609161,60.187749,24.830332,15.529337,18.342517,0.0,-1.0,101.155449,1.305306,-0.007388,0.018844,-1.192496
259544.050105,-0.06840513000000001,-0.17738442000000001,-9.816141060000001,0.003383,9.7e-05,0.004155,-46.068359,160.737808,-168.738632,60.187749,24.830332,15.529337,18.342517,0.0,-1.0,101.155449,1.305306,-0.007386,0.018855,-1.192499
259544.070091,-0.07499745000000001,-0.18441819,-9.811343970000001,0.003613,7e-06,0.005694,-46.04805,160.711548,-168.61673,60.187749,24.830332,15.529337,18.342517,0.0,-1.0,101.155449,1.305306,-0.007375,0.018879,-1.192496
259544.090077,-0.07170129,-0.16854560999999998,-9.81464013,0.001585,-0.000733,0.005445,-46.307175,160.487015,-168.929535,60.187749,24.830332,15.529337,18.342517,0.0,-1.0,101.155449,1.305306,-0.007368,0.01887,-1.192495
259544.110063,-0.06811083000000001,-0.19893699,-9.80940159,0.003576,0.000259,0.005184,-46.241348,160.439606,-168.651764,60.187749,24.830332,15.529337,18.342517,0.0,-1.0,101.155449,1.305306,-0.007363,0.018876,-1.192502
259544.130049,-0.07813665,-0.17303859,-9.811500930000001,0.002634,-0.000693,0.004686,-46.209732,160.600647,-168.573654,60.187749,24.830332,15.529337,18.342517,0.0,-1.0,101.155449,1.305306,-0.007369,0.018878,-1.1925
259544.150034,-0.06720831000000001,-0.18741024,-9.80775351,0.003923,0.000112,0.004642,-46.146393,160.477905,-168.660034,60.187749,24.830332,15.529337,18.342517,0.0,-1.0,101.155449,1.305306,-0.007359,0.018878,-1.192495
259544.17002,-0.06930765,-0.19279593,-9.819427410000001,0.002151,-0.000475,0.00331,-46.18248,160.575485,-168.70903,60.187749,24.830332,15.529337,18.342517,0.0,-1.0,101.155449,1.305306,-0.007356,0.018874,-1.192496
259544.190006,-0.06885639,-0.17782587000000002,-9.81718092,0.00156,0.000397,0.003629,-46.119583,160.538498,-168.791046,60.187749,24.830332,15.529337,18.342517,0.0,-1.0,101.155449,1.305306,-0.007355,0.018866,-1.192498
259544.209992,-0.06436341000000001,-0.19504242000000002,-9.81239364,0.003692,0.000124,0.004255,-46.048523,160.331955,-168.995544,60.187749,24.830332,15.529337,18.342517,0.0,-1.0,101.155449,1.305306,-0.007366,0.018864,-1.192499
259544.229977,-0.06765957,-0.17738442000000001,-9.81404172,0.003468,-0.001133,0.003108,-46.227295,160.445099,-168.900055,60.187749,24.830332,15.529337,18.342517,0.0,-1.0,101.155449,1.305306,-0.007362,0.018853,-1.192513
259544.249963,-0.0691605,-0.18396693,-9.82212516,0.003419,0.000696,0.005249,-46.183609,160.360916,-168.903076,60.187749,24.830332,15.529337,18.342517,0.0,-1.0,101.155449,1.305306,-0.007347,0.018844,-1.192528
259544.269949,-0.07095573000000001,-0.18636057,-9.80535987,0.002687,-0.00039,0.004343,-46.188873,160.484634,-168.835144,60.187749,24.830332,15.529337,18.342517,0.0,-1.0,101.155449,1.305306,-0.007348,0.018839,-1.192532
259544.289935,-0.07005321,-0.17064495000000002,-9.81793629,0.003374,0.000978,0.004338,-46.225403,160.383438,-168.91095,60.187749,24.830332,15.529337,18.342517,0.0,-1.0,101.155449,1.305306,-0.007338,0.018844,-1.192542
259544.309921,-0.07918631999999999,-0.17782587000000002,-9.81119682,0.003443,-0.000984,0.003685,-46.225403,160.383438,-168.91095,60.187749,24.830332,15.529337,18.342517,0.0,-1.0,101.155449,1.305306,-0.007353,0.018849,-1.192557
259544.329906,-0.08217837000000001,-0.18277011,-9.82332198,0.002334,0.001334,0.003441,-46.158737,160.457184,-169.032608,60.187749,24.830332,15.529337,18.342517,0.0,-1.0,101.155449,1.305306,-0.007352,0.018849,-1.192563
259544.349892,-0.06466752,-0.17588349,-9.81418887,0.003436,-0.000416,0.004442,-46.257751,160.44931,-168.939835,60.187749,24.830332,15.529337,18.342517,0.0,-1.0,101.155449,1.305306,-0.007348,0.018855,-1.192573
259544.369878,-0.07484049000000001,-0.18157329000000003,-9.81628821,0.004077,0.000121,0.003536,-45.981369,160.376129,-169.056183,60.187749,24.830332,15.529337,18.342517,0.0,-1.0,101.155449,1.305306,-0.007337,0.018855,-1.192577
259544.389864,-0.07813665,-0.18710613,-9.82122264,0.002198,0.000594,0.006242,-46.237091,160.497757,-169.195877,60.187749,24.830332,15.529337,18.342517,0.0,-1.0,101.155449,1.305306,-0.007336,0.01884,-1.19258
259544.409849,-0.060920100000000005,-0.18381978000000002,-9.81777933,0.003188,0.001451,0.005011,-45.984756,160.521896,-169.231766,60.187749,24.830332,15.529337,18.342517,0.0,-1.0,101.155449,1.305306,-0.007327,0.018855,-1.192576
259544.429835,-0.06601149,-0.1707921,-9.8361927,0.004602,-2.7e-05,0.004357,-45.965546,160.576797,-168.970047,60.187749,24.830332,15.529337,18.342517,0.0,-1.0,101.155449,1.305306,-0.007329,0.018862,-1.192577
259544.449821,-0.08607294000000001,-0.1907064,-9.80626239,0.003166,0.001688,0.00488,-45.983932,160.691742,-169.08519,60.187749,24.830332,15.529337,18.335672,0.0,-1.0,101.155449,1.305306,-0.00732,0.018868,-1.192559
259544.469807,-0.07394778,-0.17124336,-9.817033770000002,0.003385,-0.000443,0.004213,-46.106949,160.48642,-169.09938,60.187749,24.830332,15.529337,18.335672,0.0,-1.0,101.155449,1.305306,-0.007326,0.018871,-1.192556
259544.509778,-0.07454619,-0.19145196,-9.81164808,0.003618,0.00044,0.001534,-46.032196,160.607834,-168.981613,60.187749,24.830332,15.529337,18.335672,0.0,-1.0,101.155449,1.305306,-0.007332,0.018881,-1.192572
259544.529764,-0.07079877000000001,-0.18142614,-9.816739470000002,0.002891,0.000456,0.00357,-46.056366,160.559128,-169.011154,60.187749,24.830332,15.529337,18.335672,0.0,-1.0,101.155449,1.305306,-0.007328,0.018877,-1.192589
259544.54975,-0.07724394000000001,-0.17887554,-9.81688662,0.00205,-0.000626,0.003471,-46.037277,160.707657,-168.90593,60.187749,24.830332,15.529337,18.335672,0.0,-1.0,101.155449,1.305306,-0.007328,0.018874,-1.1926
259544.569736,-0.07020036,-0.18666468,-9.81209934,0.002096,0.001215,0.003152,-46.256607,160.644394,-168.782074,60.187749,24.830332,15.529337,18.335672,0.0,-1.0,101.155449,1.305306,-0.007327,0.018865,-1.192587
259544.589721,-0.06720831000000001,-0.17977806,-9.82272357,0.002637,0.001211,0.005309,-46.257004,160.454102,-168.908417,60.187749,24.830332,15.529337,18.335672,0.0,-1.0,101.155449,1.305306,-0.007327,0.018863,-1.19259
259544.609707,-0.07424208,-0.17842428,-9.81329616,0.003317,0.001267,0.00446,-46.150345,160.526855,-168.868393,60.187749,24.830332,15.529337,18.335672,0.0,-1.0,101.155449,1.305306,-0.007315,0.018863,-1.192591
259544.629693,-0.06361785,-0.18411408,-9.815238540000001,0.001625,8.4e-05,0.004992,-46.251083,160.542877,-168.990295,60.187749,24.830332,15.529337,18.335672,0.0,-1.0,101.155449,1.305306,-0.007302,0.01885,-1.192583
259544.649679,-0.07184844,-0.18576216000000004,-9.81,0.001954,0.001374,0.004526,-46.24147,160.546646,-169.006989,60.187749,24.830332,15.529337,18.335672,0.0,-1.0,101.155449,1.305306,-0.007282,0.018845,-1.192583
259544.669665,-0.07529175,-0.17798283,-9.81404172,0.00156,0.000327,0.003955,-46.132629,160.318024,-168.817429,60.187749,24.830332,15.529337,18.335672,0.0,-1.0,101.155449,1.305306,-0.007279,0.018843,-1.192602
259544.68965,-0.06691401,-0.18621342,-9.815689800000001,0.002517,-0.000773,0.003906,-46.164841,160.568787,-168.61644,60.187749,24.830332,15.529337,18.335672,0.0,-1.0,101.155449,1.305306,-0.007278,0.018836,-1.192616
259544.709636,-0.06975891000000001,-0.18351567000000002,-9.80954874,0.003491,0.000492,0.005403,-46.115158,160.722778,-168.622147,60.187749,24.830332,15.529337,18.335672,0.0,-1.0,101.155449,1.305306,-0.007268,0.018843,-1.1926
259544.729622,-0.06601149,-0.18396693,-9.81987867,0.002346,-0.000128,0.003294,-46.341888,160.577682,-168.83551,60.187749,24.830332,15.529337,18.335672,0.0,-1.0,101.155449,1.305306,-0.007258,0.018835,-1.192617
259544.749608,-0.07529175,-0.1793268,-9.81194238,0.001981,-0.00023,0.003113,-46.237274,160.689896,-168.732925,60.187749,24.830332,15.529337,18.335672,0.0,-1.0,101.155449,1.305306,-0.007265,0.01883,-1.192614
259544.769593,-0.07693983,-0.18306441,-9.81,0.003466,-0.00017,0.005064,-46.212067,160.771851,-168.674088,60.187749,24.830332,15.529337,18.335672,0.0,-1.0,101.155449,1.305306,-0.007259,0.018824,-1.192599
259544.789579,-0.06481467,-0.18367263,-9.80521272,0.002404,0.000235,0.004728,-46.152176,160.588058,-168.624756,60.187749,24.830332,15.529337,18.335672,0.0,-1.0,101.155449,1.305306,-0.007255,0.018833,-1.192598
259544.809565,-0.07739109000000001,-0.1938456,-9.81434583,0.003928,0.000541,0.004489,-46.087082,160.717972,-168.535995,60.187749,24.830332,15.529337,18.335672,0.0,-1.0,101.155449,1.305306,-0.007241,0.018838,-1.192603
259544.829551,-0.08262963000000001,-0.19219751999999998,-9.825715620000002,0.002258,0.000115,0.004044,-46.103943,160.660919,-168.667496,60.187749,24.830332,15.529337,18.335672,0.0,-1.0,101.155449,1.305306,-0.007234,0.01884,-1.192606
259544.849536,-0.0577809,-0.19264878,-9.81299205,0.002688,-0.000464,0.004763,-46.120728,160.574158,-168.703308,60.187749,24.830332,15.529337,18.335672,0.0,-1.0,101.155449,1.305306,-0.007246,0.018825,-1.192613
259544.869522,-0.06316659000000001,-0.18097488,-9.819427410000001,0.004409,0.001675,0.004553,-46.081223,160.644608,-168.785919,60.187749,24.830332,15.529337,18.335672,0.0,-1.0,101.155449,1.305306,-0.007238,0.018832,-1.192608
259544.889508,-0.06361785,-0.18126918000000003,-9.82062423,0.002255,-0.001471,0.00507,-45.993607,160.594162,-168.878372,60.187749,24.830332,15.529337,18.335672,0.0,-1.0,101.155449,1.305306,-0.007252,0.018824,-1.192606
259544.909494,-0.07469334000000001,-0.1793268,-9.81329616,0.002797,-0.001162,0.005888,-46.138184,160.58316,-168.929825,60.187749,24.830332,15.529337,18.335672,0.0,-1.0,101.155449,1.305306,-0.007258,0.018817,-1.192591
259544.909494,-0.07469334000000001,-0.1793268,-9.81329616,0.002797,-0.001162,0.005888,-46.138184,160.58316,-168.929825,60.187749,24.830332,15.529337,18.335672,0.0,-1.0,101.155449,1.305306,-0.007258,0.018817,-1.192591
259544.949465,-0.07020036,-0.18636057,-9.8128449,0.003305,0.000894,0.005551,-46.291275,160.554886,-168.874191,60.187749,24.830332,15.529337,18.335672,0.0,-1.0,101.155449,1.305306,-0.007249,0.018813,-1.192585
259544.969451,-0.06720831000000001,-0.19175607,-9.81509139,0.003321,-0.000954,0.00246,-46.140686,160.473221,-168.825134,60.187749,24.830332,15.529337,18.335672,0.0,-1.0,101.155449,1.305306,-0.00724,0.018811,-1.192582
259544.989437,-0.0666099,-0.17693316,-9.80640954,0.002198,-0.000684,0.00299,-46.163055,160.601486,-168.867966,60.187749,24.830332,15.529337,18.335672,0.0,-1.0,101.155449,1.305306,-0.007239,0.018814,-1.192585
259545.009423,-0.06496182,-0.18531090000000003,-9.824822910000002,0.002767,3.9e-05,0.003213,-46.163055,160.601486,-168.867966,60.187749,24.830332,15.529337,18.335672,0.0,-1.0,101.155449,1.305306,-0.007238,0.018816,-1.192597
259545.029408,-0.07724394000000001,-0.1938456,-9.838890450000001,0.003457,0.000426,0.005027,-46.206284,160.459686,-169.09491,60.187749,24.830332,15.529337,18.335672,0.0,-1.0,101.155449,1.305306,-0.007235,0.018822,-1.192623
259545.049394,-0.07289811,-0.18396693,-9.808499070000002,0.002792,0.000438,0.003663,-46.131805,160.596786,-168.980591,60.187749,24.830332,15.529337,18.335672,0.0,-1.0,101.155273,1.32116,-0.007245,0.018824,-1.192625
259545.06938,-0.07844076,-0.18800865000000003,-9.81583695,0.003896,-0.000187,0.004125,-46.195038,160.586319,-169.266556,60.187749,24.830332,15.529337,18.335672,0.0,-1.0,101.155273,1.32116,-0.00724,0.018831,-1.192629
259545.089366,-0.07589016,-0.17423541,-9.81538569,0.001799,-0.000183,0.004678,-45.98822,160.532791,-168.766586,60.187749,24.830332,15.529337,18.335672,0.0,-1.0,101.155273,1.32116,-0.007237,0.018829,-1.192628
259545.109351,-0.07858791000000001,-0.18126918000000003,-9.7986204,0.004118,9.1e-05,0.003068,-46.314438,160.473175,-168.969772,60.187749,24.830332,15.529337,18.335672,0.0,-1.0,101.155273,1.32116,-0.007228,0.01885,-1.192628
259545.129337,-0.07260381,-0.18427104,-9.81898596,0.002552,-0.000471,0.005539,-46.057587,160.488953,-169.130325,60.187749,24.830332,15.529337,18.335672,0.0,-1.0,101.155273,1.32116,-0.007225,0.018861,-1.192616
259545.149323,-0.07469334000000001,-0.19399275000000002,-9.823174830000001,0.002393,0.000355,0.004315,-46.214218,160.608505,-169.018112,60.187749,24.830332,15.529337,18.335672,0.0,-1.0,101.155273,1.32116,-0.007231,0.018853,-1.192628
259545.169309,-0.07858791000000001,-0.19130481000000002,-9.81793629,0.004543,-0.000244,0.005508,-46.032471,160.544128,-168.966461,60.187749,24.830332,15.529337,18.335672,0.0,-1.0,101.155273,1.32116,-0.007218,0.01886,-1.192626
259545.189295,-0.05837931,-0.16989939,-9.799218810000001,0.00369,-0.000729,0.003914,-46.244766,160.53537,-168.909744,60.187749,24.830332,15.529337,18.335672,0.0,-1.0,101.155273,1.32116,-0.00723,0.018869,-1.192628
259545.229266,-0.07184844,-0.17678601,-9.81329616,0.001852,0.000501,0.003122,-46.294479,160.619263,-168.604462,60.187749,24.830332,15.529337,18.335672,0.0,-1.0,101.155273,1.32116,-0.007243,0.018872,-1.192627
259545.249252,-0.07634142000000001,-0.19459116,-9.82466595,0.00292,0.000415,0.003894,-46.157669,160.539246,-168.694336,60.187749,24.830332,15.529337,18.335672,0.0,-1.0,101.155273,1.32116,-0.007243,0.018887,-1.192626
259545.269238,-0.07424208,-0.18980388,-9.822870720000001,0.00263,-0.00017,0.006056,-46.272018,160.678253,-168.776794,60.187749,24.830332,15.529337,18.335672,0.0,-1.0,101.155273,1.32116,-0.007242,0.018904,-1.192635
259545.289223,-0.08412075,-0.18576216000000004,-9.81,0.003577,0.000128,0.004604,-46.254211,160.65625,-168.84346,60.187749,24.830332,15.529337,18.335672,0.0,-1.0,101.155273,1.32116,-0.007244,0.018924,-1.192639
259545.309209,-0.06720831000000001,-0.18710613,-9.81987867,0.004225,-0.000673,0.004916,-46.257248,160.602905,-168.756836,60.187749,24.830332,15.529337,18.335672,0.0,-1.0,101.155273,1.32116,-0.007254,0.018931,-1.192639
259545.329195,-0.06196977,-0.19054944000000001,-9.81538569,0.004293,-0.000749,0.004745,-45.88443,160.647339,-168.920425,60.187749,24.830332,15.529337,18.335672,0.0,-1.0,101.155273,1.32116,-0.00727,0.018939,-1.192625
259545.349181,-0.06242103,-0.19399275000000002,-9.81808344,0.004229,2.6e-05,0.004747,-46.031204,160.788712,-169.01239,60.187749,24.830332,15.529337,18.335672,0.0,-1.0,101.155273,1.32116,-0.007272,0.018939,-1.192624
259545.369166,-0.07424208,-0.17558919000000003,-9.830807010000001,0.003447,-0.000143,0.003884,-46.262711,160.456268,-168.873413,60.187749,24.830332,15.529337,18.335672,0.0,-1.0,101.155273,1.32116,-0.007265,0.018938,-1.192631
259545.389152,-0.07035732,-0.18681183,-9.80026848,0.005075,0.000507,0.005666,-46.052994,160.770279,-168.756012,60.187749,24.830332,15.529337,18.335672,0.0,-1.0,101.155273,1.32116,-0.00728,0.018948,-1.19264
259545.409138,-0.07784234999999999,-0.17499078,-9.82332198,0.002043,-0.001342,0.004072,-46.143036,160.668243,-168.830246,60.187749,24.830332,15.529337,18.335672,0.0,-1.0,101.155273,1.32116,-0.007277,0.018944,-1.19263
259545.429124,-0.0779895,-0.18950957999999998,-9.81628821,0.004014,-0.000597,0.004223,-46.163437,160.663116,-168.539459,60.187749,24.830332,15.529337,18.335672,0.0,-1.0,101.155273,1.32116,-0.007279,0.018952,-1.192634
259545.449109,-0.06122421,-0.17499078,-9.81344331,0.003175,-0.00034,0.004723,-46.229523,160.616913,-169.084686,60.187749,24.830332,15.529337,18.330647,0.0,-1.0,101.155273,1.32116,-0.007271,0.018963,-1.192633
259545.469095,-0.07380063,-0.19025514000000002,-9.818377739999999,0.002252,0.000181,0.005967,-46.144638,160.698761,-168.842972,60.187749,24.830332,15.529337,18.330647,0.0,-1.0,101.155273,1.32116,-0.007274,0.018963,-1.192618
259545.489081,-0.0666099,-0.19549368000000003,-9.81628821,0.0031,0.000703,0.002956,-46.134598,160.731323,-168.491226,60.187749,24.830332,15.529337,18.330647,0.0,-1.0,101.155273,1.32116,-0.00728,0.018974,-1.192621
259545.509067,-0.07603731000000001,-0.19264878,-9.835143030000001,0.003107,0.000105,0.004956,-46.186661,160.361893,-168.732574,60.187749,24.830332,15.529337,18.330647,0.0,-1.0,101.155273,1.32116,-0.00727,0.018986,-1.192638
259545.529052,-0.07529175,-0.1764819,-9.801171,0.004207,0.000327,0.003924,-46.131195,160.551331,-169.06398,60.187749,24.830332,15.529337,18.330647,0.0,-1.0,101.155273,1.32116,-0.007263,0.018989,-1.192636
259545.549037,-0.06466752,-0.20087937,-9.82616688,0.003415,0.00076,0.004364,-46.221863,160.585968,-168.902023,60.187749,24.830332,15.529337,18.330647,0.0,-1.0,101.155273,1.32116,-0.007262,0.018984,-1.192636
259545.569023,-0.07020036,-0.1907064,-9.80162226,0.003338,-0.00022,0.005665,-46.155655,160.466232,-168.723999,60.187749,24.830332,15.529337,18.330647,0.0,-1.0,101.155273,1.32116,-0.007261,0.018993,-1.192631
259545.589009,-0.07170129,-0.18576216000000004,-9.813590460000002,0.003913,0.00054,0.005046,-46.116943,160.489426,-169.246216,60.187749,24.830332,15.529337,18.330647,0.0,-1.0,101.155273,1.32116,-0.007262,0.019007,-1.192624
259545.608994,-0.06526593,-0.18905832000000003,-9.81928026,0.002178,0.00021,0.003106,-46.12619,160.399414,-168.948456,60.187749,24.830332,15.529337,18.330647,0.0,-1.0,101.155273,1.32116,-0.007255,0.019005,-1.192645
259545.62898,-0.07679268,-0.18037647,-9.819427410000001,0.003874,6.6e-05,0.005784,-46.264877,160.496201,-169.033005,60.187749,24.830332,15.529337,18.330647,0.0,-1.0,101.155273,1.32116,-0.007246,0.019004,-1.192631
259545.648966,-0.059576130000000005,-0.1938456,-9.80101404,0.004303,0.001189,0.004282,-46.165375,160.715668,-168.747894,60.187749,24.830332,15.529337,18.330647,0.0,-1.0,101.155273,1.32116,-0.007231,0.01901,-1.192633
259545.668952,-0.07753824,-0.17348985,-9.81509139,0.005175,8e-05,0.003975,-46.402847,160.585861,-168.874374,60.187749,24.830332,15.529337,18.330647,0.0,-1.0,101.155273,1.32116,-0.007232,0.019019,-1.192641
259545.688937,-0.07050447,-0.18381978000000002,-9.81090252,0.002405,-0.001864,0.004642,-46.26001,160.561707,-169.116852,60.187749,24.830332,15.529337,18.330647,0.0,-1.0,101.155273,1.32116,-0.007251,0.019027,-1.192646
259545.708923,-0.0782838,-0.19040229,-9.8216739,0.00359,0.000232,0.005384,-46.26001,160.561707,-169.116852,60.187749,24.830332,15.529337,18.330647,0.0,-1.0,101.155273,1.32116,-0.007256,0.019039,-1.192634
259545.728909,-0.07424208,-0.18681183,-9.81090252,0.004083,0.000242,0.004167,-46.042435,160.662201,-169.084702,60.187749,24.830332,15.529337,18.330647,0.0,-1.0,101.155273,1.32116,-0.007271,0.019038,-1.192635
259545.748895,-0.06167547,-0.18291726,-9.82511721,0.003192,0.000448,0.003866,-46.184921,160.550629,-169.185883,60.187749,24.830332,15.529337,18.330647,0.0,-1.0,101.155273,1.32116,-0.007268,0.019038,-1.192626
259545.768881,-0.07663572,-0.19010799,-9.82062423,0.003489,1.8e-05,0.003549,-46.239197,160.424225,-169.091614,60.187749,24.830332,15.529337,18.330647,0.0,-1.0,101.155273,1.32116,-0.007275,0.019022,-1.192621
259545.788866,-0.07380063,-0.17782587000000002,-9.81329616,0.003865,0.000264,0.004471,-46.333572,160.794128,-168.998459,60.187749,24.830332,15.529337,18.330647,0.0,-1.0,101.155273,1.32116,-0.00727,0.019026,-1.192621
259545.808852,-0.07170129,-0.18336852,-9.81554265,0.001852,-0.000996,0.003878,-46.13649,160.44371,-168.838837,60.187749,24.830332,15.529337,18.330647,0.0,-1.0,101.155273,1.32116,-0.00728,0.019015,-1.192631
259545.828838,-0.07035732,-0.18650772000000002,-9.82616688,0.004208,-0.00078,0.004223,-46.233353,160.532394,-169.214401,60.187749,24.830332,15.529337,18.330647,0.0,-1.0,101.155273,1.32116,-0.007277,0.019012,-1.192639
259545.848824,-0.0836793,-0.18367263,-9.82661814,0.002358,-0.000325,0.002818,-46.256271,160.401031,-169.02446,60.187749,24.830332,15.529337,18.330647,0.0,-1.0,101.155273,1.32116,-0.007276,0.019011,-1.192647
259545.868809,-0.07663572,-0.18262296000000003,-9.81239364,0.003518,0.001101,0.004305,-46.155243,160.56456,-169.324951,60.187749,24.830332,15.529337,18.330647,0.0,-1.0,101.155273,1.32116,-0.007267,0.018992,-1.192643
259545.888795,-0.06167547,-0.1850166,-9.8128449,0.003754,-0.000193,0.004638,-46.083847,160.599747,-169.145798,60.187749,24.830332,15.529337,18.330647,0.0,-1.0,101.155273,1.32116,-0.007259,0.018975,-1.19265
259545.908781,-0.06496182,-0.17827713000000003,-9.80505576,0.004381,0.000186,0.004134,-46.305222,160.46257,-168.920578,60.187749,24.830332,15.529337,18.330647,0.0,-1.0,101.155273,1.32116,-0.007266,0.018982,-1.192655
259545.948752,-0.07244685000000001,-0.18277011,-9.813590460000002,0.004145,-0.001279,0.004812,-46.261124,160.599976,-169.068222,60.187749,24.830332,15.529337,18.330647,0.0,-1.0,101.155273,1.32116,-0.007274,0.018971,-1.19264
259545.948752,-0.07244685000000001,-0.18277011,-9.813590460000002,0.004145,-0.001279,0.004812,-46.261124,160.599976,-169.068222,60.187749,24.830332,15.529337,18.330647,0.0,-1.0,101.155273,1.32116,-0.007274,0.018971,-1.19264
259545.988724,-0.06316659000000001,-0.18262296000000003,-9.819731520000001,0.003725,-0.000576,0.002968,-46.330383,160.482361,-168.612167,60.187749,24.830332,15.529337,18.330647,0.0,-1.0,101.155273,1.32116,-0.00726,0.018958,-1.192625
259546.00871,-0.07139718,-0.18845991,-9.81045126,0.001956,0.000763,0.003086,-46.325165,160.605164,-168.768707,60.187749,24.830332,15.529337,18.330647,0.0,-1.0,101.155273,1.32116,-0.007256,0.018947,-1.19264
259546.028695,-0.06930765,-0.18367263,-9.81793629,0.002907,-0.001395,0.004883,-46.255188,160.662155,-169.090698,60.187749,24.830332,15.529337,18.330647,0.0,-1.0,101.155273,1.32116,-0.007264,0.018938,-1.192644
259546.048681,-0.07439904,-0.18336852,-9.823469130000001,0.004023,-3e-06,0.003552,-46.191315,160.715164,-169.046585,60.187749,24.830332,15.529337,18.330647,0.0,-1.0,101.155273,1.32116,-0.007269,0.018945,-1.192642
259546.068667,-0.07184844,-0.17842428,-9.818829,0.002785,-0.000292,0.004903,-46.092789,160.597092,-168.937485,60.187749,24.830332,15.529337,18.330647,0.0,-1.0,101.155273,1.32116,-0.007269,0.018941,-1.192653
259546.088652,-0.07693983,-0.18666468,-9.79817895,0.002193,0.000529,0.003126,-46.264008,160.625305,-169.042496,60.187749,24.830332,15.529337,18.330647,0.0,-1.0,101.155273,1.32116,-0.007262,0.018943,-1.192657
259546.108638,-0.07260381,-0.19040229,-9.81987867,0.002272,-0.000633,0.003965,-46.130066,160.531738,-168.847519,60.187749,24.830332,15.529337,18.330647,0.0,-1.0,101.155273,1.32116,-0.007271,0.018933,-1.192658
259546.128624,-0.07768539,-0.17094906,-9.819584370000001,0.002698,-0.000757,0.004407,-46.166977,160.599258,-168.849579,60.187749,24.830332,15.529337,18.330647,0.0,-1.0,101.155045,1.339656,-0.00728,0.018945,-1.192647
259546.14861,-0.0663156,-0.18621342,-9.818377739999999,0.002289,-0.000913,0.00258,-46.164871,160.558319,-168.913254,60.187749,24.830332,15.529337,18.330647,0.0,-1.0,101.155045,1.339656,-0.007295,0.018935,-1.192657
259546.168595,-0.07978473,-0.19264878,-9.80655669,0.005098,-0.000208,0.003859,-46.060242,160.534698,-169.172577,60.187749,24.830332,15.529337,18.330647,0.0,-1.0,101.155045,1.339656,-0.007298,0.018935,-1.192666
259546.188581,-0.08292393,-0.16870257000000002,-9.81269775,0.00227,0.000594,0.00449,-46.087051,160.486984,-168.771027,60.187749,24.830332,15.529337,18.330647,0.0,-1.0,101.155045,1.339656,-0.007299,0.018918,-1.192667
259546.188581,-0.08292393,-0.16870257000000002,-9.81269775,0.00227,0.000594,0.00449,-46.087051,160.486984,-168.771027,60.187749,24.830332,15.529337,18.330647,0.0,-1.0,101.155045,1.339656,-0.007299,0.018918,-1.192667
259546.228553,-0.06945480000000001,-0.18231885,-9.811500930000001,0.003139,0.000129,0.003716,-46.140549,160.32959,-169.317032,60.187749,24.830332,15.529337,18.330647,0.0,-1.0,101.155045,1.339656,-0.007294,0.018906,-1.192685
259546.248538,-0.05478885,-0.17289144,-9.82511721,0.00432,0.000996,0.004968,-46.202774,160.388809,-168.618057,60.187749,24.830332,15.529337,18.330647,0.0,-1.0,101.155045,1.339656,-0.007288,0.018917,-1.192701
259546.268524,-0.06361785,-0.18650772000000002,-9.82241946,0.003975,-0.00058,0.002961,-46.064682,160.240692,-169.109451,60.187749,24.830332,15.529337,18.330647,0.0,-1.0,101.155045,1.339656,-0.007281,0.018928,-1.192711
259546.28851,-0.07289811,-0.17662905,-9.80640954,0.002245,0.000367,0.005047,-46.122009,160.300201,-169.028244,60.187749,24.830332,15.529337,18.330647,0.0,-1.0,101.155045,1.339656,-0.007277,0.018916,-1.192701
259546.308496,-0.07005321,-0.17244018,-9.81344331,0.002899,-0.000647,0.003072,-46.26944,160.261078,-168.730804,60.187749,24.830332,15.529337,18.330647,0.0,-1.0,101.155045,1.339656,-0.007283,0.018904,-1.192692
259546.328481,-0.07858791000000001,-0.18007236000000001,-9.820477080000002,0.003446,0.00052,0.004195,-46.312607,160.215851,-169.306702,60.187749,24.830332,15.529337,18.330647,0.0,-1.0,101.155045,1.339656,-0.007283,0.018901,-1.192691
259546.348467,-0.0663156,-0.17963091,-9.81074556,0.001973,-0.000227,0.003286,-46.374344,160.39537,-168.875519,60.187749,24.830332,15.529337,18.330647,0.0,-1.0,101.155045,1.339656,-0.007279,0.018892,-1.192696
259546.368453,-0.06856209,-0.182466,-9.811049670000001,0.001991,-0.00096,0.00518,-46.289536,160.427429,-168.780472,60.187749,24.830332,15.529337,18.330647,0.0,-1.0,101.155045,1.339656,-0.007284,0.018896,-1.192689
259546.388439,-0.06107706,-0.18217170000000002,-9.82062423,0.002443,0.000329,0.005103,-46.251617,160.384537,-169.038773,60.187749,24.830332,15.529337,18.330647,0.0,-1.0,101.155045,1.339656,-0.00728,0.018886,-1.192686
259546.408424,-0.07469334000000001,-0.18396693,-9.816582510000002,0.003866,0.000848,0.007277,-46.251617,160.384537,-169.038773,60.187749,24.830332,15.529337,18.330647,0.0,-1.0,101.155045,1.339656,-0.007256,0.018874,-1.192656
259546.42841,-0.06182262000000001,-0.18441819,-9.80565417,0.002323,-0.000784,0.004233,-46.292068,160.224304,-169.069244,60.187749,24.830332,15.529337,18.330647,0.0,-1.0,101.155045,1.339656,-0.007257,0.01886,-1.19265
259546.42841,-0.06182262000000001,-0.18441819,-9.80565417,0.002323,-0.000784,0.004233,-46.292068,160.224304,-169.069244,60.187749,24.830332,15.529337,18.330647,0.0,-1.0,101.155045,1.339656,-0.007257,0.01886,-1.19265
259546.468382,-0.06930765,-0.19264878,-9.819584370000001,0.001678,-0.000868,0.004446,-46.189728,160.383545,-169.123398,60.187749,24.830332,15.529337,18.33065,0.0,-1.0,101.155045,1.339656,-0.007253,0.018843,-1.192635
259546.488367,-0.06706116000000001,-0.19040229,-9.81,0.003515,0.00075,0.003381,-46.3078,160.417419,-169.241028,60.187749,24.830332,15.529337,18.33065,0.0,-1.0,101.155045,1.339656,-0.007246,0.018841,-1.192625
259546.508353,-0.07170129,-0.16825131000000002,-9.8216739,0.002393,-0.000679,0.003977,-45.949036,160.455322,-169.305252,60.187749,24.830332,15.529337,18.33065,0.0,-1.0,101.155045,1.339656,-0.007241,0.018848,-1.192625
259546.548325,-0.06586434000000001,-0.18291726,-9.814787280000001,0.003602,0.000596,0.0052,-46.1633,160.406998,-169.557312,60.187749,24.830332,15.529337,18.33065,0.0,-1.0,101.155045,1.339656,-0.007215,0.018845,-1.192605
259546.548325,-0.06586434000000001,-0.18291726,-9.814787280000001,0.003602,0.000596,0.0052,-46.1633,160.406998,-169.557312,60.187749,24.830332,15.529337,18.33065,0.0,-1.0,101.155045,1.339656,-0.007215,0.018845,-1.192605
259546.588296,-0.07155414,-0.17662905,-9.820182780000001,0.002145,7.2e-05,0.004522,-46.326172,160.36647,-169.158661,60.187749,24.830332,15.529337,18.33065,0.0,-1.0,101.155045,1.339656,-0.007198,0.018833,-1.192606
259546.608282,-0.07380063,-0.18905832000000003,-9.823626090000001,0.002918,-0.000144,0.00463,-46.087662,160.433258,-168.940247,60.187749,24.830332,15.529337,18.33065,0.0,-1.0,101.155045,1.339656,-0.007184,0.01881,-1.1926
