timestamp,accel_x,accel_y,accel_z,gyro_x,gyro_y,gyro_z,mag_x,mag_y,mag_z,gps_lat,gps_lon,gps_alt,gps_accuracy,gps_speed,gps_course,pressure,altitude,roll,pitch,yaw
256703.010651,-6.44769117,0.92582856,7.24104549,0.012769,-0.08503,0.015523,-92.784775,139.613922,-91.618073,60.187662,24.830165,14.280172,42.401777,0.0,-1.0,101.175278,-0.348786,-2.414638,-0.094605,0.252019
256703.070608,-6.458315400000001,0.9886910400000001,7.33983219,0.012557,-0.083353,0.006999,-92.682022,139.685593,-91.607086,60.187662,24.830165,14.280172,42.401777,0.0,-1.0,101.175278,-0.348786,-2.419765,-0.09532,0.251899
256703.11058,-6.43721409,0.8340658200000001,7.428602880000001,0.007723,-0.071348,0.011862,-92.518234,139.616806,-91.350876,60.187662,24.830165,14.280172,42.401777,0.0,-1.0,101.175278,-0.348786,-2.422924,-0.095748,0.251931
256703.170538,-6.3795803399999995,1.01848401,7.33384809,0.004866,-0.076336,0.011229,-92.283737,139.717651,-91.336517,60.187662,24.830165,14.280172,42.401777,0.0,-1.0,101.175278,-0.348786,-2.427256,-0.09632,0.251575
256703.190524,-6.3839261700000005,0.9924384600000001,7.2892420200000005,0.015267,-0.087489,0.00898,-92.363815,139.807877,-91.198471,60.187662,24.830165,14.280172,42.401777,0.0,-1.0,101.175278,-0.348786,-2.428756,-0.096427,0.251473
256703.21051,-6.3453042,0.95022603,7.237445220000001,0.02111,-0.110978,0.011031,-92.331879,139.536209,-91.101562,60.187662,24.830165,14.280172,42.401777,0.0,-1.0,101.175278,-0.348786,-2.430384,-0.096622,0.251547
256703.230496,-6.33452301,0.8870594400000001,7.3049576400000005,0.023413,-0.145367,0.013232,-92.091446,139.888489,-91.139267,60.187662,24.830165,14.280172,42.401777,0.0,-1.0,101.175278,-0.348786,-2.432408,-0.096943,0.251676
256703.250482,-6.27974397,0.8482903199999999,7.29897354,0.022806,-0.179076,0.016726,-91.924805,139.828323,-91.306595,60.187662,24.830165,14.280172,42.401777,0.0,-1.0,101.175278,-0.348786,-2.435032,-0.097345,0.25178
256703.270468,-6.305034150000001,0.86370183,7.34807259,0.026862,-0.195958,0.022797,-91.985077,139.863678,-90.810226,60.187662,24.830165,14.280172,42.401777,0.0,-1.0,101.175278,-0.348786,-2.438363,-0.097777,0.251852
256703.270468,-6.305034150000001,0.86370183,7.34807259,0.026862,-0.195958,0.022797,-91.985077,139.863678,-90.810226,60.187662,24.830165,14.280172,42.401777,0.0,-1.0,101.175278,-0.348786,-2.438363,-0.097777,0.251852
256703.31044,-6.205492080000001,0.90696393,7.460632530000001,0.017647,-0.220486,0.033408,-91.849792,139.617844,-90.739395,60.187662,24.830165,14.280172,42.401777,0.0,-1.0,101.175278,-0.348786,-2.446219,-0.098965,0.251817
256703.330426,-6.19262136,1.04946399,7.442827380000001,0.018755,-0.238911,0.033602,-91.597748,139.573212,-90.357925,60.187662,24.830165,14.280172,42.401777,0.0,-1.0,101.175278,-0.348786,-2.450557,-0.099574,0.251598
256703.350412,-6.1589436300000004,1.0976703300000001,7.4354895,0.023636,-0.251245,0.032741,-91.470886,139.737488,-90.469376,60.187662,24.830165,14.280172,42.401777,0.0,-1.0,101.175278,-0.348786,-2.455301,-0.10018,0.25136
256703.370398,-6.10640127,0.97013052,7.51796217,0.030867,-0.272092,0.029332,-91.211456,139.736832,-90.2491,60.187662,24.830165,14.280172,42.401777,0.0,-1.0,101.175278,-0.348786,-2.460275,-0.100846,0.251177
256703.390384,-6.0447258,0.91205532,7.563922020000001,0.029846,-0.29961,0.027092,-91.062103,139.664902,-90.271988,60.187662,24.830165,14.280172,42.401777,0.0,-1.0,101.175278,-0.348786,-2.4656,-0.10157,0.251085
256703.410369,-6.04084104,0.9650391300000001,7.584876180000001,0.029046,-0.30893,0.031241,-91.062103,139.664902,-90.271988,60.187662,24.830165,14.280172,42.401777,0.0,-1.0,101.175278,-0.348786,-2.471415,-0.102293,0.251054
256703.430355,-6.04053693,1.0270187100000001,7.600748760000001,0.034619,-0.30173,0.036437,-90.616394,139.645172,-89.810974,60.187662,24.830165,14.280172,42.401777,0.0,-1.0,101.175278,-0.348786,-2.477561,-0.102987,0.250962
256703.450341,-6.00731046,1.19556432,7.568709300000001,0.069134,-0.284978,0.020547,-90.481995,139.579803,-90.144501,60.187662,24.830165,14.280172,42.401777,0.0,-1.0,101.175278,-0.348786,-2.483618,-0.103824,0.250787
256703.470327,-5.90671872,1.2573869400000002,7.6811319000000005,0.108964,-0.254605,0.001152,-90.245804,139.706985,-89.776352,60.187662,24.830165,14.280172,42.401777,0.0,-1.0,101.175278,-0.348786,-2.489496,-0.10496,0.251048
256703.490313,-5.739517080000001,0.98704296,7.946080380000001,0.092566,-0.270437,-0.006379,-90.017822,139.853058,-89.780212,60.187662,24.830165,14.280172,42.401777,0.0,-1.0,101.175278,-0.348786,-2.494658,-0.106527,0.252164
256703.510299,-5.58308682,0.83990277,8.068224690000001,0.046014,-0.311732,0.001723,-89.995407,140.044388,-89.756454,60.187662,24.830165,14.280172,42.401777,0.0,-1.0,101.175278,-0.348786,-2.499795,-0.107982,0.253527
256703.530285,-5.81555439,1.0298538000000002,8.03424285,0.037557,-0.297268,0.000247,-89.516541,139.98407,-89.8508,60.187662,24.830165,14.280172,42.401777,0.0,-1.0,101.175278,-0.348786,-2.505784,-0.108854,0.254272
256703.550271,-5.87273688,1.19616273,7.904613510000001,0.063353,-0.253467,-0.011449,-89.077652,139.737961,-89.458237,60.187662,24.830165,14.280172,42.401777,0.0,-1.0,101.175278,-0.348786,-2.511803,-0.109392,0.254726
256703.570257,-5.58488205,1.0355436,7.957155870000001,0.072505,-0.246546,-0.002965,-89.232819,139.641083,-89.367737,60.187662,24.830165,14.280172,42.401777,0.0,-1.0,101.175125,-0.335574,-2.517071,-0.110035,0.255524
256703.590243,-5.554794780000001,0.96115437,8.12540718,0.066886,-0.245084,-0.002988,-88.988754,139.806671,-89.255341,60.187662,24.830165,14.280172,42.401777,0.0,-1.0,101.175125,-0.335574,-2.52178,-0.110998,0.256495
256703.610229,-5.63758137,1.0961694000000002,8.13498174,0.064407,-0.213606,-0.021048,-88.704849,139.70491,-89.20018,60.187662,24.830165,14.280172,42.401777,0.0,-1.0,101.175125,-0.335574,-2.526514,-0.111943,0.257318
256703.630215,-5.513484870000001,1.1621808900000001,8.127800820000001,0.065217,-0.19638,-0.028154,-88.580078,139.717453,-89.187897,60.187662,24.830165,14.280172,42.401777,0.0,-1.0,101.175125,-0.335574,-2.530826,-0.112705,0.258358
256703.650201,-5.57516034,1.2620270700000003,8.072864820000001,0.071334,-0.152178,-0.040734,-88.394699,139.705688,-88.776001,60.187662,24.830165,14.280172,42.401777,0.0,-1.0,101.175125,-0.335574,-2.534676,-0.113348,0.259563
256703.690173,-5.52740526,1.0961694000000002,8.116725330000001,0.064172,-0.117341,-0.040102,-88.044144,139.822586,-88.78804,60.187662,24.830165,14.280172,42.401777,0.0,-1.0,101.175125,-0.335574,-2.540441,-0.114728,0.262714
256703.710159,-5.542826580000001,1.01009646,8.163872190000001,0.04153,-0.093081,-0.026355,-88.066437,139.869171,-88.781067,60.187662,24.830165,14.280172,42.401777,0.0,-1.0,101.175125,-0.335574,-2.54279,-0.115271,0.264219
256703.730145,-5.58952218,1.11757482,8.144409150000001,0.026424,-0.055786,-0.01159,-87.992035,139.615311,-88.34201,60.187662,24.830165,14.280172,42.401777,0.0,-1.0,101.175125,-0.335574,-2.54469,-0.115602,0.265294
256703.750132,-5.49911322,1.16636976,8.15429763,0.014781,-0.042993,-0.015491,-87.760208,139.748779,-88.46106,60.187662,24.830165,14.280172,42.401777,0.0,-1.0,101.175125,-0.335574,-2.545943,-0.115813,0.265895
256703.770117,-5.48234793,1.21082868,8.07825051,0.014032,-0.038843,-0.019739,-87.888794,139.674271,-88.647263,60.187662,24.830165,14.280172,42.401777,0.0,-1.0,101.175125,-0.335574,-2.546749,-0.115852,0.266327
256703.790103,-5.461393770000001,1.1425707,8.01897849,0.016105,-0.042073,-0.023056,-87.792923,139.732086,-88.679306,60.187662,24.830165,14.280172,42.401777,0.0,-1.0,101.175125,-0.335574,-2.547504,-0.115765,0.266821
256703.810089,-5.4646899300000005,1.11159072,7.98544791,0.016105,-0.042073,-0.023056,-87.761703,139.697464,-88.636353,60.187662,24.830165,14.280172,42.401777,0.0,-1.0,101.175125,-0.335574,-2.54832,-0.115673,0.267373
256703.830075,-5.34074058,1.09946556,8.05804191,0.021694,-0.048931,-0.028194,-87.782822,139.514175,-88.666367,60.187662,24.830165,14.280172,42.401777,0.0,-1.0,101.175125,-0.335574,-2.549262,-0.115611,0.268037
256703.850061,-5.341937400000001,1.04168466,8.13512889,0.010072,-0.087188,-0.007601,-87.775848,139.667923,-88.664246,60.187662,24.830165,14.280172,42.401777,0.0,-1.0,101.175125,-0.335574,-2.550383,-0.115597,0.26872
256703.870047,-5.46572979,1.00246428,8.03334033,0.001891,-0.097677,-0.00176,-87.577881,139.672775,-88.316162,60.187662,24.830165,14.280172,42.401777,0.0,-1.0,101.175125,-0.335574,-2.551938,-0.115597,0.269146
256703.890033,-5.38983963,1.0553009400000002,7.95266289,0.009479,-0.113331,0.005259,-87.774338,139.719421,-88.359009,60.187662,24.830165,14.280172,42.401777,0.0,-1.0,101.175125,-0.335574,-2.553832,-0.115553,0.269315
256703.910019,-5.26215267,0.99648018,8.06387886,0.013376,-0.151674,0.00745,-87.433395,139.801071,-88.355423,60.187662,24.830165,14.280172,42.401777,0.0,-1.0,101.175125,-0.335574,-2.555967,-0.115607,0.269342
256703.930005,-5.28730551,0.9948321,8.041580730000002,0.019323,-0.169035,0.016858,-87.421188,139.61792,-88.21138,60.187662,24.830165,14.280172,42.401777,0.0,-1.0,101.175125,-0.335574,-2.558646,-0.115773,0.269367
256703.949991,-5.323680990000001,1.02147606,8.06971581,0.019664,-0.18856,0.022356,-87.398056,139.692474,-88.151611,60.187662,24.830165,14.280172,42.401777,0.0,-1.0,101.175125,-0.335574,-2.561841,-0.116116,0.269325
256703.969977,-5.364098190000001,1.0958751,8.02226484,0.020908,-0.196791,0.026179,-87.241226,139.714661,-88.148605,60.187662,24.830165,14.280172,42.401777,0.0,-1.0,101.175125,-0.335574,-2.565461,-0.116602,0.269172
256703.989963,-5.18117112,1.10963853,8.089326,0.009525,-0.218517,0.037777,-87.288498,139.638031,-88.150269,60.187662,24.830165,14.280172,42.401777,0.0,-1.0,101.175125,-0.335574,-2.569359,-0.117142,0.268994
256704.009949,-5.126990490000001,1.07431272,8.18632728,0.004483,-0.241189,0.046664,-86.895905,139.621765,-87.791534,60.187662,24.830165,14.280172,42.401777,0.0,-1.0,101.175125,-0.335574,-2.573718,-0.117642,0.268626
256704.029935,-5.2027335,1.12371588,8.25788142,0.008219,-0.244165,0.045854,-86.622498,139.495636,-88.000259,60.187662,24.830165,14.280172,42.401777,0.0,-1.0,101.175125,-0.335574,-2.578567,-0.118132,0.26798
256704.049921,-5.17982715,1.18448883,8.191418670000001,0.016216,-0.241093,0.044143,-86.544769,139.377625,-88.023972,60.187662,24.830165,14.280172,42.401777,0.0,-1.0,101.175125,-0.335574,-2.583526,-0.118636,0.267341
256704.069907,-5.082982830000001,1.1795445900000001,8.260422210000002,0.016069,-0.244305,0.043814,-86.404022,139.273178,-87.688004,60.187662,24.830165,14.280172,42.401777,0.0,-1.0,101.175125,-0.335574,-2.588463,-0.119225,0.266779
256704.089893,-5.045106420000001,1.15215507,8.3899044,0.006653,-0.23412,0.049368,-86.037781,139.268326,-87.338364,60.187662,24.830165,14.280172,42.401777,0.0,-1.0,101.175125,-0.335574,-2.593324,-0.119905,0.266252
256704.109879,-4.966371360000001,1.16787069,8.48944647,0.004454,-0.215702,0.037897,-86.235672,139.157135,-87.419235,60.187662,24.830165,14.280172,42.401777,0.0,-1.0,101.175125,-0.335574,-2.598145,-0.120451,0.265533
256704.129865,-4.9473595800000005,1.20963186,8.45172702,0.01097,-0.193403,0.031603,-86.235672,139.157135,-87.419235,60.187662,24.830165,14.280172,42.401777,0.0,-1.0,101.175125,-0.335574,-2.602595,-0.120886,0.264859
256704.149851,-4.97175705,1.2331366200000002,8.43496173,0.005656,-0.176359,0.035032,-86.035583,139.203949,-87.569016,60.187662,24.830165,14.280172,42.401777,0.0,-1.0,101.175125,-0.335574,-2.606631,-0.121312,0.264393
256704.169837,-4.90934583,1.22115861,8.395142940000001,-0.006651,-0.194371,0.03689,-85.846741,139.380219,-87.392944,60.187662,24.830165,14.280172,42.401777,0.0,-1.0,101.175125,-0.335574,-2.61031,-0.121751,0.263916
256704.189823,-4.88718504,1.2081407400000002,8.311169340000001,-0.004344,-0.204041,0.039294,-85.618057,139.327789,-87.345001,60.187662,24.830165,14.280172,42.401777,0.0,-1.0,101.175125,-0.335574,-2.61415,-0.122011,0.263334
256704.209808,-4.88733219,1.2314885400000002,8.31580947,0.008972,-0.211346,0.037712,-85.506531,139.080872,-87.615875,60.187662,24.830165,14.280172,42.401777,0.0,-1.0,101.175125,-0.335574,-2.618272,-0.122234,0.262677
256704.229794,-4.78405251,1.1752085700000001,8.37763209,0.014878,-0.221461,0.038064,-85.327316,139.030579,-87.375443,60.187662,24.830165,14.280172,42.401777,0.0,-1.0,101.175125,-0.335574,-2.622517,-0.122609,0.262096
256704.24978,-4.6937907,1.0359948600000002,8.46564741,0.011721,-0.249456,0.040556,-85.085541,139.226349,-87.192612,60.187662,24.830165,14.280172,42.401777,0.0,-1.0,101.175125,-0.335574,-2.626875,-0.123098,0.261641
256704.269766,-4.69783242,1.0524658500000001,8.32090086,0.007878,-0.2929,0.044305,-84.981415,139.148972,-87.283661,60.187662,24.830165,14.280172,42.401777,0.0,-1.0,101.175125,-0.335574,-2.631706,-0.123573,0.261107
256704.289752,-4.81399263,1.20858219,8.22808845,0.020222,-0.285377,0.054918,-84.852325,139.029816,-87.399612,60.187662,24.830165,14.280172,42.401777,0.0,-1.0,101.175125,-0.335574,-2.637448,-0.123984,0.260434
256704.309738,-4.50323145,1.116378,8.467138530000001,0.026663,-0.313012,0.054478,-84.572296,139.362701,-86.958313,60.187662,24.830165,14.280172,42.401777,0.0,-1.0,101.175125,-0.335574,-2.643338,-0.124601,0.259647
256704.329724,-4.47898113,1.06398279,8.63778348,0.011998,-0.336345,0.060484,-84.33786,139.073257,-86.912857,60.187662,24.830165,14.280172,42.401777,0.0,-1.0,101.175125,-0.335574,-2.649597,-0.125435,0.258899
256704.34971,-4.53227886,1.15545123,8.67820068,0.00236,-0.337832,0.073155,-84.287292,138.959488,-86.853729,60.187662,24.830165,14.280172,42.401777,0.0,-1.0,101.175125,-0.335574,-2.65637,-0.12618,0.258069
256704.369696,-4.4882712,1.2484009800000002,8.58180762,0.00243,-0.344684,0.073021,-84.178421,138.661362,-86.930222,60.187662,24.830165,14.280172,42.401777,0.0,-1.0,101.175125,-0.335574,-2.663338,-0.12682,0.256893
256704.389682,-4.38168555,1.2970487700000002,8.59093092,0.0083,-0.350266,0.077161,-83.816467,138.958359,-86.928833,60.187662,24.830165,14.280172,42.401777,0.0,-1.0,101.175125,-0.335574,-2.670323,-0.127427,0.255668
256704.409668,-4.29367023,1.21232961,8.73612873,0.006616,-0.352492,0.083524,-83.641006,138.779816,-87.224731,60.187662,24.830165,14.280172,42.401777,0.0,-1.0,101.175125,-0.335574,-2.677471,-0.128179,0.254422
256704.44964,-4.054473,1.1091970800000002,8.79002487,-0.022919,-0.369197,0.11414,-83.22406,138.625381,-86.77002,60.187662,24.830165,14.280172,42.401777,0.0,-1.0,101.175125,-0.335574,-2.691893,-0.129563,0.2514
256704.469626,-4.04802783,1.12341177,8.808732540000001,-0.017044,-0.364349,0.124354,-83.022156,138.646225,-87.090332,60.187662,24.830165,14.280172,42.401777,0.0,-1.0,101.175125,-0.335574,-2.699386,-0.130106,0.24926
256704.489612,-4.03500996,1.14092262,8.832982860000001,-0.011118,-0.352654,0.124953,-82.655792,138.945724,-86.830109,60.187662,24.830165,14.280172,42.401777,0.0,-1.0,101.175125,-0.335574,-2.706896,-0.130718,0.246906
256704.509598,-3.85702713,1.09946556,8.85678192,-0.017677,-0.364664,0.135506,-82.304993,138.790771,-86.83345,60.187662,24.830165,14.280172,42.401777,0.0,-1.0,101.175125,-0.335574,-2.714277,-0.131458,0.24456
256704.529584,-3.73578534,1.1379305700000002,8.88327873,-0.021406,-0.392979,0.14941,-82.142715,138.478821,-86.900253,60.187662,24.830165,14.280172,42.401777,0.0,-1.0,101.175125,-0.335574,-2.721765,-0.132223,0.242061
256704.54957,-3.7323420300000003,1.1349385200000002,8.836573320000001,-0.022045,-0.429257,0.155323,-81.790451,138.634613,-86.497604,60.187662,24.830165,14.280172,42.401777,0.0,-1.0,101.175125,-0.335574,-2.729762,-0.132984,0.239277
256704.54957,-3.7323420300000003,1.1349385200000002,8.836573320000001,-0.022045,-0.429257,0.155323,-81.790451,138.634613,-86.497604,60.187662,24.830165,14.280172,42.401777,0.0,-1.0,101.175125,-0.335574,-2.729762,-0.132984,0.239277
256704.589542,-3.58160157,1.22175702,8.889262830000002,-0.012113,-0.481115,0.162086,-81.386414,138.554489,-86.409119,60.187662,24.830165,14.280172,42.401777,0.0,-1.0,101.175125,-0.335574,-2.747773,-0.134585,0.233392
256704.609528,-3.66796881,1.24091595,8.88476985,-0.006305,-0.501895,0.16409,-80.832382,138.541245,-86.602509,60.187662,24.830165,14.280172,42.401777,0.0,-1.0,101.175125,-0.335574,-2.757575,-0.135546,0.230382
256704.629514,-3.4576620300000003,1.2289477500000001,8.889262830000002,-0.00943,-0.5359,0.163931,-80.704819,138.297287,-86.221863,60.187662,24.830165,14.280172,42.401777,0.0,-1.0,101.175125,-0.335574,-2.767779,-0.136542,0.227315
256704.6495,-3.2876154900000003,1.2651662700000001,8.94479724,-0.011923,-0.573977,0.170548,-80.457092,138.379044,-86.568314,60.187662,24.830165,14.280172,42.401777,0.0,-1.0,101.175064,-0.33029,-2.778564,-0.137506,0.224229
256704.669486,-3.32758143,1.34554941,8.98131987,-0.010229,-0.599486,0.165691,-80.128235,138.43132,-86.75264,60.187662,24.830165,14.280172,42.401777,0.0,-1.0,101.175064,-0.33029,-2.790203,-0.138389,0.220986
256704.689472,-3.3519789,1.4587175700000001,9.09762723,-0.003906,-0.587439,0.155201,-80.177063,138.327255,-86.73465,60.187662,24.830165,14.280172,42.401777,0.0,-1.0,101.175064,-0.33029,-2.802499,-0.139228,0.217747
256704.709458,-3.1763995200000004,1.45542141,9.24148107,-0.007322,-0.57372,0.146166,-80.133331,138.102005,-86.706512,60.187662,24.830165,14.280172,42.401777,0.0,-1.0,101.175064,-0.33029,-2.814768,-0.140085,0.214761
256704.729444,-2.98883232,1.47533571,9.30330369,-0.009744,-0.560702,0.137922,-80.065842,138.076981,-86.931198,60.187662,24.830165,14.280172,42.401777,0.0,-1.0,101.175064,-0.33029,-2.826754,-0.140831,0.211971
256704.749429,-2.9210256000000006,1.4931408600000002,9.35434512,0.001164,-0.527857,0.11392,-80.241058,138.337372,-87.097153,60.187662,24.830165,14.280172,42.401777,0.0,-1.0,101.175064,-0.33029,-2.838439,-0.141413,0.209323
256704.769415,-2.83569822,1.51110297,9.461372220000001,0.008937,-0.481303,0.091046,-80.0121,138.510437,-87.286362,60.187662,24.830165,14.280172,42.401777,0.0,-1.0,101.175064,-0.33029,-2.849551,-0.141968,0.207028
256704.789401,-2.71070901,1.55361951,9.577836540000002,0.008688,-0.424963,0.066078,-80.191544,138.492249,-87.383942,60.187662,24.830165,14.280172,42.401777,0.0,-1.0,101.175064,-0.33029,-2.859698,-0.14256,0.20521
256704.809387,-2.59051689,1.52786826,9.61031745,0.002763,-0.373704,0.05438,-80.058334,138.874985,-86.914948,60.187662,24.830165,14.280172,42.401777,0.0,-1.0,101.175064,-0.33029,-2.868669,-0.143062,0.203916
256704.829373,-2.51686341,1.52353224,9.553134960000001,-0.003721,-0.32537,0.053156,-80.058334,138.874985,-86.914948,60.187662,24.830165,14.280172,42.401777,0.0,-1.0,101.175064,-0.33029,-2.876577,-0.143392,0.202887
256704.849359,-2.4382755,1.59148611,9.53412318,-0.003721,-0.32537,0.053156,-79.84938,139.077942,-86.881424,60.187662,24.830165,14.280172,42.401777,0.0,-1.0,101.175064,-0.33029,-2.883517,-0.143552,0.201888
256704.869345,-2.45414808,1.5876013500000001,9.5236461,-0.007727,-0.243547,0.040611,-79.817032,139.29567,-86.702911,60.187662,24.830165,14.280172,42.401777,0.0,-1.0,101.175064,-0.33029,-2.88969,-0.143614,0.20094
256704.889331,-2.3336518500000003,1.5486752700000002,9.58322223,-0.006654,-0.207524,0.033471,-79.752914,139.445282,-86.112518,60.187662,24.830165,14.280172,42.401777,0.0,-1.0,101.175064,-0.33029,-2.895038,-0.143611,0.200131
256704.909317,-2.24757891,1.52338509,9.533828880000002,-0.004991,-0.188695,0.026405,-79.416367,139.436905,-86.379211,60.187662,24.830165,14.280172,42.401777,0.0,-1.0,101.175064,-0.33029,-2.89957,-0.143591,0.19947
256704.929303,-2.31538563,1.5561603,9.477686250000001,0.001514,-0.165976,0.017573,-79.360489,139.570206,-86.247086,60.187662,24.830165,14.280172,42.401777,0.0,-1.0,101.175064,-0.33029,-2.903546,-0.14353,0.198966
256704.949289,-2.3999576400000002,1.53326376,9.48786903,0.005832,-0.136483,0.004262,-79.060898,139.601395,-86.324631,60.187662,24.830165,14.280172,42.401777,0.0,-1.0,101.175064,-0.33029,-2.907042,-0.143521,0.198631
256704.969275,-2.30012127,1.4432962500000002,9.54010728,0.002421,-0.119078,-0.00855,-79.157257,139.562057,-86.378998,60.187662,24.830165,14.280172,42.401777,0.0,-1.0,101.175064,-0.33029,-2.90995,-0.143567,0.198506
256704.989261,-2.12228559,1.3768335,9.47035818,-0.003433,-0.118109,-0.010354,-79.063782,139.680603,-86.315262,60.187662,24.830165,14.280172,42.401777,0.0,-1.0,101.175064,-0.33029,-2.91237,-0.143527,0.19864
256705.009247,-1.9999941300000001,1.3564777500000003,9.3676671,3e-06,-0.131325,0.007053,-78.668167,139.655563,-86.069427,60.187662,24.830165,14.280172,42.401777,0.0,-1.0,101.175064,-0.33029,-2.914657,-0.143355,0.198887
256705.049219,-2.15311842,1.25723979,9.43487541,-0.011529,-0.166466,0.036405,-78.509506,139.43631,-86.162994,60.187662,24.830165,14.280172,42.401777,0.0,-1.0,101.175064,-0.33029,-2.920206,-0.143275,0.198522
256705.069205,-2.01496419,1.25154999,9.394016760000001,-0.02186,-0.197865,0.045358,-78.472351,139.295593,-86.370316,60.187662,24.830165,14.280172,42.401777,0.0,-1.0,101.175064,-0.33029,-2.923551,-0.143154,0.197897
256705.089191,-1.85764122,1.2094847100000001,9.286538400000001,-0.019597,-0.240123,0.06947,-78.122818,139.204514,-86.061981,60.187662,24.830165,14.280172,42.401777,0.0,-1.0,101.175064,-0.33029,-2.927453,-0.1429,0.197058
256705.109177,-1.8250033500000002,1.1918169,9.306747,-0.014521,-0.279022,0.095202,-77.935226,139.11174,-86.39801,60.187662,24.830165,14.280172,42.401777,0.0,-1.0,101.175064,-0.33029,-2.932161,-0.142704,0.195838
256705.129163,-1.7811428400000002,1.16172963,9.405239400000001,-0.01998,-0.313986,0.1205,-77.706177,138.728943,-86.65889,60.187662,24.830165,14.280172,42.401777,0.0,-1.0,101.175064,-0.33029,-2.937735,-0.14268,0.194121
256705.149149,-1.66199058,1.19137545,9.44640216,-0.032145,-0.352592,0.140824,-77.108673,138.64357,-86.701263,60.187662,24.830165,14.280172,42.401777,0.0,-1.0,101.175064,-0.33029,-2.944051,-0.142692,0.191872
256705.169135,-1.6197781500000001,1.33881975,9.37710432,-0.026902,-0.401747,0.129329,-76.503418,138.103058,-86.969894,60.187662,24.830165,14.280172,42.401777,0.0,-1.0,101.175064,-0.33029,-2.951185,-0.142575,0.189125
256705.189121,-2.9214768600000003,0.38560167000000006,14.552732790000002,-0.428567,-0.318978,0.043588,-76.148773,138.276382,-86.93158,60.187662,24.830165,14.280172,42.401777,0.0,-1.0,101.175064,-0.33029,-2.958896,-0.142293,0.186232
256705.209107,-2.07394191,2.24966844,4.520153700000001,-0.065542,-0.083732,0.029801,-76.692886,138.406128,-86.299835,60.187662,24.830165,14.280172,42.401777,0.0,-1.0,101.175064,-0.33029,-2.964431,-0.137334,0.184139
256705.229093,-1.97903016,1.8103374,8.80588764,0.025496,0.062161,-0.008158,-76.553375,138.611465,-86.289124,60.187662,24.830165,14.280172,42.401777,0.0,-1.0,101.175064,-0.33029,-2.967195,-0.136612,0.182969
256705.249079,-1.86092757,1.76468166,9.683961120000001,0.080236,0.138314,-0.045881,-76.514999,138.842377,-85.96521,60.187662,24.830165,14.280172,42.401777,0.0,-1.0,101.175064,-0.33029,-2.968177,-0.135469,0.182722
256705.269065,-1.51619436,1.8676670400000002,8.93027844,0.147772,0.145963,-0.085569,-76.677109,139.425308,-86.086411,60.187662,24.830165,14.280172,42.401777,0.0,-1.0,101.175064,-0.33029,-2.966467,-0.136641,0.183649
256705.289051,-1.52487621,1.1499085800000002,10.6747515,0.042703,0.062441,-0.112388,-76.775482,139.74501,-86.118011,60.187662,24.830165,14.280172,42.401777,0.0,-1.0,101.175064,-0.33029,-2.963798,-0.138176,0.185566
256705.309037,-1.37893284,1.48027014,8.82325134,0.038247,-0.010336,-0.095962,-76.819794,139.644394,-85.954468,60.187662,24.830165,14.280172,42.401777,0.0,-1.0,101.175064,-0.33029,-2.961721,-0.139241,0.187995
256705.329023,-1.5566115600000001,1.06249167,9.948311190000002,-0.041647,-0.098765,-0.057464,-76.768204,140.016495,-85.685974,60.187662,24.830165,14.280172,42.401777,0.0,-1.0,101.175064,-0.33029,-2.961224,-0.139788,0.190267
256705.349009,-1.72710936,1.12565826,9.58860792,-0.075805,-0.117496,-0.000153,-76.789948,139.830215,-85.631165,60.187662,24.830165,14.280172,42.401777,0.0,-1.0,101.175064,-0.33029,-2.962586,-0.138837,0.191672
256705.368995,-1.6271160300000003,1.32803856,9.258550470000001,-0.060114,-0.100765,0.049929,-76.8116,139.625931,-85.97699,60.187662,24.830165,14.280172,42.401777,0.0,-1.0,101.175064,-0.33029,-2.964881,-0.137664,0.191862
256705.388981,-1.72546128,1.10260476,9.91269108,-0.086798,-0.107116,0.053762,-76.957031,139.335526,-85.950668,60.187662,24.830165,14.280172,42.401777,0.0,-1.0,101.175064,-0.33029,-2.967261,-0.136187,0.190971
256705.408967,-1.6603425000000003,1.3564777500000003,9.3474585,-0.077487,-0.120665,0.041961,-76.701157,139.238235,-86.272644,60.187662,24.830165,14.280172,42.401777,0.0,-1.0,101.175064,-0.33029,-2.969514,-0.134779,0.189725
256705.428953,-1.54314243,1.24600734,9.58501746,-0.094571,-0.144526,0.037009,-76.5849,139.142578,-86.363831,60.187662,24.830165,14.280172,42.401777,0.0,-1.0,101.175064,-0.33029,-2.971992,-0.13336,0.188556
256705.448939,-1.7042030099999999,1.2344805900000002,9.66345822,-0.098933,-0.154854,0.024529,-76.537949,138.765305,-86.199921,60.187662,24.830165,14.280172,42.401777,0.0,-1.0,101.175064,-0.33029,-2.974869,-0.131591,0.187604
256705.468925,-1.5012243,1.31217579,9.492509160000001,-0.083625,-0.145164,0.032433,-76.316345,138.71286,-86.123795,60.187662,24.830165,14.280172,42.401777,0.0,-1.0,101.175064,-0.33029,-2.978009,-0.129726,0.186796
256705.488911,-1.6205335200000002,1.32070068,9.684108270000001,-0.084143,-0.132739,0.022022,-76.217194,138.258972,-86.212128,60.187662,24.830165,14.280172,42.401777,0.0,-1.0,101.175064,-0.33029,-2.981107,-0.127974,0.185959
256705.508897,-1.40751918,1.2753490500000002,9.461676330000001,-0.081071,-0.142232,0.020687,-76.080948,138.273483,-86.626129,60.187662,24.830165,14.280172,42.401777,0.0,-1.0,101.175064,-0.33029,-2.983925,-0.126332,0.185218
256705.528883,-1.4009366699999999,1.11008979,9.668098350000001,-0.108206,-0.179761,0.029192,-76.048508,138.132141,-86.10643,60.187662,24.830165,14.280172,42.401777,0.0,-1.0,101.175064,-0.33029,-2.98678,-0.12471,0.184657
256705.548869,-1.3979446199999999,1.1186244900000002,9.59819229,-0.129869,-0.216323,0.050619,-76.048508,138.132141,-86.10643,60.187662,24.830165,14.280172,42.401777,0.0,-1.0,101.175064,-0.33029,-2.990207,-0.122755,0.183914
256705.568855,-1.40961852,1.0901853000000001,9.62273691,-0.150418,-0.243698,0.064172,-75.89064,137.787994,-86.542221,60.187662,24.830165,14.280172,42.401777,0.0,-1.0,101.175064,-0.33029,-2.994451,-0.120393,0.182737
256705.588841,-1.36934847,1.10260476,9.60073308,-0.158306,-0.257998,0.061595,-75.697784,137.457748,-85.992859,60.187662,24.830165,14.280172,42.401777,0.0,-1.0,101.175064,-0.33029,-2.999289,-0.117645,0.181205
256705.608827,-1.2998936700000001,1.1666738700000001,9.54624834,-0.162176,-0.277996,0.055832,-75.677811,137.268021,-86.378189,60.187662,24.830165,14.280172,42.401777,0.0,-1.0,101.175064,-0.33029,-3.004558,-0.114728,0.179588
256705.628813,-1.2162241800000002,1.05904836,9.66285981,-0.183891,-0.314426,0.053073,-75.268234,137.003815,-86.606003,60.187662,24.830165,14.280172,42.401777,0.0,-1.0,101.175064,-0.33029,-3.010147,-0.11163,0.178099
256705.648799,-1.1060480700000002,0.9961760700000001,9.66121173,-0.204348,-0.35408,0.057336,-75.011993,136.733826,-86.367828,60.187662,24.830165,14.280172,42.401777,0.0,-1.0,101.175064,-0.33029,-3.016305,-0.108194,0.176684
256705.668785,-1.08839007,0.93555027,9.63337095,-0.216688,-0.37421,0.064092,-74.80307,136.366531,-86.13327,60.187662,24.830165,14.280172,42.401777,0.0,-1.0,101.175064,-0.33029,-3.023279,-0.104321,0.175174
256705.708757,-0.94453623,0.8566680600000001,9.70222734,-0.217291,-0.380967,0.059051,-74.093491,135.924362,-86.430588,60.187662,24.830165,14.280172,42.401777,0.0,-1.0,101.175064,-0.33029,-3.03856,-0.095902,0.171813
256705.728743,-0.87747507,0.8063721899999999,9.69354549,-0.212088,-0.375067,0.065957,-73.710495,135.490982,-86.390076,60.187662,24.830165,14.280172,42.401777,0.0,-1.0,101.175064,-0.33029,-3.046348,-0.091618,0.170255
256705.748729,-0.88077123,0.79005816,9.75700638,-0.203432,-0.362723,0.064911,-73.58754,135.401672,-86.112366,60.187662,24.830165,14.280172,42.401777,0.0,-1.0,101.175064,-0.33029,-3.054062,-0.087395,0.168682
256705.768715,-0.82777761,0.8496342900000001,9.72198468,-0.185579,-0.327211,0.065268,-73.118973,135.261551,-86.160843,60.187662,24.830165,14.280172,42.401777,0.0,-1.0,101.175064,-0.33029,-3.061505,-0.083325,0.167131
256705.788701,-0.70922376,0.8095212,9.76044969,-0.169491,-0.306426,0.061305,-72.65451,135.160172,-85.773148,60.187662,24.830165,14.280172,42.401777,0.0,-1.0,101.175064,-0.33029,-3.068385,-0.079546,0.165627
256705.808687,-0.61147692,0.7444024200000001,9.723632760000001,-0.169491,-0.306426,0.061305,-72.562607,135.016708,-86.084564,60.187662,24.830165,14.280172,42.401777,0.0,-1.0,101.175064,-0.33029,-3.074708,-0.076078,0.164241
256705.828673,-0.52600239,0.75562506,9.74099646,-0.152483,-0.279859,0.051518,-72.165588,134.874695,-85.799637,60.187662,24.830165,14.280172,42.401777,0.0,-1.0,101.175064,-0.33029,-3.080719,-0.072785,0.162947
256705.828673,-0.52600239,0.75562506,9.74099646,-0.152483,-0.279859,0.051518,-72.165588,134.874695,-85.799637,60.187662,24.830165,14.280172,42.401777,0.0,-1.0,101.175064,-0.33029,-3.080719,-0.072785,0.162947
256705.848659,-0.58049694,0.76775022,9.75011976,-0.130188,-0.237282,0.034263,-71.997253,134.538361,-85.775772,60.187662,24.830165,14.280172,42.401777,0.0,-1.0,101.175064,-0.33029,-3.08649,-0.069673,0.161768
256705.888631,-0.35221824,0.64725399,9.77063247,-0.093664,-0.179172,-4.8e-05,-71.662781,134.274963,-85.998322,60.187662,24.830165,14.280172,42.401777,0.0,-1.0,101.175064,-0.33029,-3.095833,-0.064545,0.160423
256705.908617,-0.29173959000000005,0.54112941,9.77317326,-0.094165,-0.181113,-0.016637,-71.292145,133.964462,-86.162521,60.187662,24.830165,14.280172,42.401777,0.0,-1.0,101.175064,-0.33029,-3.099512,-0.062536,0.160307
256705.908617,-0.29173959000000005,0.54112941,9.77317326,-0.094165,-0.181113,-0.016637,-71.292145,133.964462,-86.162521,60.187662,24.830165,14.280172,42.401777,0.0,-1.0,101.175064,-0.33029,-3.099512,-0.062536,0.160307
256705.948589,-0.22632651000000004,0.37032750000000003,9.76374585,-0.140383,-0.276791,-0.00955,-71.167786,133.6418,-86.460129,60.187662,24.830165,14.280172,42.401777,0.0,-1.0,101.175064,-0.33029,-3.107124,-0.05845,0.160977
256705.968575,-0.34638129,0.40804695,9.70971237,-0.15726,-0.30192,-0.002349,-70.912216,133.580215,-85.820908,60.187662,24.830165,14.280172,42.401777,0.0,-1.0,101.175064,-0.33029,-3.11223,-0.05576,0.161241
256705.988561,-0.20178189000000002,0.41089185,9.73275606,-0.166832,-0.330904,0.001829,-70.701309,133.697311,-86.122375,60.187662,24.830165,14.280172,42.401777,0.0,-1.0,101.175064,-0.33029,-3.118184,-0.052634,0.161307
256706.008547,-0.20073222000000002,0.24009975,9.81898596,-0.181492,-0.347939,-0.030282,-70.41835,133.784637,-85.818329,60.187662,24.830165,14.280172,42.401777,0.0,-1.0,101.175064,-0.33029,-3.124674,-0.049278,0.161332
256706.028533,-0.7008460200000001,0.27033417000000004,9.700579260000001,-0.186698,-0.340806,-0.12944,-70.251038,133.942673,-85.949326,60.187662,24.830165,14.280172,42.401777,0.0,-1.0,101.175064,-0.33029,-3.131461,-0.045699,0.161728
256706.04852,-0.09879651,0.33500169,9.84382488,-0.164231,-0.317382,-0.174854,-69.584259,134.168533,-84.847641,60.187662,24.830165,14.280172,42.401777,0.0,-1.0,101.175064,-0.33029,-3.138312,-0.041895,0.163751
256706.068506,0.16241436,1.13778342,9.83350476,0.094745,0.202885,-0.077903,-68.877289,134.658722,-84.898331,60.187662,24.830165,14.280172,42.401777,0.0,-1.0,101.175064,-0.33029,3.138488,-0.038311,0.167142
256706.088492,0.26075961000000003,0.20627487000000003,7.200628290000001,0.007078,0.039146,-0.090444,-68.855713,134.64444,-84.391296,60.187662,24.830165,14.280172,42.401777,0.0,-1.0,101.175064,-0.33029,3.136201,-0.037186,0.169318
256706.108478,1.1030560200000001,0.31134978,8.69601564,-0.048933,-0.142954,-0.013187,-68.494873,134.729233,-84.269928,60.187662,24.830165,14.280172,42.401777,0.0,-1.0,101.175064,-0.33029,3.137297,-0.037491,0.170753
256706.128464,-0.32722236,0.6794406000000001,10.190059020000001,0.02549,-0.004492,0.008745,-68.308929,134.513229,-84.302551,60.187662,24.830165,14.280172,42.401777,0.0,-1.0,101.175064,-0.33029,3.136154,-0.037122,0.171616
256706.14845,0.32138541,0.07334937000000001,10.31549949,0.008225,0.024093,0.005471,-68.360062,134.652863,-84.109863,60.187662,24.830165,14.280172,42.401777,0.0,-1.0,101.175064,-0.33029,3.136467,-0.037246,0.171674
256706.168436,0.0142245,0.20687328,9.81373761,-0.003006,0.000738,0.012757,-68.292923,134.679779,-84.346008,60.187662,24.830165,14.280172,42.401777,0.0,-1.0,101.175064,-0.33029,3.136378,-0.03717,0.171509
256706.188422,0.07963758,0.30880899,9.79772769,0.002496,-0.011605,0.005693,-68.067734,134.946945,-84.1147,60.187662,24.830165,14.280172,42.401777,0.0,-1.0,101.175064,-0.33029,3.13644,-0.037179,0.171422
256706.208408,0.07079877000000001,0.24892875000000003,9.92525769,0.005618,0.001462,0.004223,-67.896179,134.733734,-84.118561,60.187662,24.830165,14.280172,42.401777,0.0,-1.0,101.175064,-0.33029,3.136315,-0.037198,0.171324
256706.228394,0.05403348,0.18831276000000002,9.878709240000001,0.00145,-0.004554,-0.001345,-67.369522,135.028198,-84.047546,60.187662,24.830165,14.280172,42.401777,0.0,-1.0,101.175064,-0.33029,3.136322,-0.037186,0.171328
256706.24838,-0.04999176,0.32617269000000004,9.58936329,0.003873,0.002658,-0.005885,-67.369522,135.028198,-84.047546,60.187662,24.830165,14.280172,42.401777,0.0,-1.0,101.175064,-0.33029,3.136256,-0.037215,0.171437
256706.268366,0.20147778000000002,0.30641535000000003,9.6047748,0.003169,-0.008739,-0.015779,-67.05365,135.141617,-84.03978,60.187662,24.830165,14.280172,42.401777,0.0,-1.0,101.175064,-0.33029,3.13621,-0.037225,0.171587
256706.308338,-0.02679111,0.34952049,10.00040229,0.002409,0.001361,-0.045001,-65.739563,135.051102,-83.839432,60.187662,24.830165,14.280172,42.401777,0.0,-1.0,101.175064,-0.33029,3.136093,-0.037185,0.17243
256706.328324,-0.02080701,0.36389214000000003,9.89322804,0.002794,-0.008641,-0.048313,-65.329086,134.885178,-83.78949,60.187662,24.830165,14.280172,42.401777,0.0,-1.0,101.175064,-0.33029,3.136029,-0.03718,0.173301
256706.34831,-0.04595004,0.32318064,9.821821049999999,-0.004541,-0.013979,-0.032333,-64.57164,134.377838,-83.790939,60.187662,24.830165,14.280172,42.401777,0.0,-1.0,101.175064,-0.33029,3.135987,-0.037165,0.174323
256706.368296,0.01152675,0.4451778,9.76180347,-0.000552,-0.005688,-0.011714,-64.542755,133.807541,-83.985718,60.187662,24.830165,14.280172,42.401777,0.0,-1.0,101.175064,-0.33029,3.135824,-0.037052,0.175163
256706.388282,0.09984618,0.45505647,9.70072641,0.0024,-0.002565,0.003577,-64.457458,133.324554,-84.550217,60.187662,24.830165,14.280172,42.401777,0.0,-1.0,101.175064,-0.33029,3.135668,-0.03698,0.175618
256706.408268,0.20462679,0.46538640000000003,9.88663572,-0.00209,-0.00471,0.012193,-64.444,132.804932,-84.769577,60.187662,24.830165,14.280172,42.401777,0.0,-1.0,101.175064,-0.33029,3.135619,-0.036928,0.175731
256706.428254,0.13501503,0.53708769,9.69579198,0.005338,0.005484,0.009745,-64.59761,132.800964,-84.774216,60.187662,24.830165,14.280172,42.401777,0.0,-1.0,101.175064,-0.33029,3.13554,-0.036888,0.175632
256706.44824,-0.03592422,0.38305107,9.74174202,0.001035,-0.0034,6.1e-05,-64.425339,132.865677,-84.962601,60.187662,24.830165,14.280172,42.401777,0.0,-1.0,101.175064,-0.33029,3.135561,-0.036904,0.175495
256706.468227,0.01241946,0.36688419000000005,9.721386270000002,0.002747,-0.000399,-0.000833,-64.677704,132.720901,-85.111359,60.187662,24.830165,14.280172,42.401777,0.0,-1.0,101.175064,-0.33029,3.135541,-0.036871,0.175503
256706.488213,0.10343664,0.40340682,9.743684400000001,0.002747,-0.000399,-0.000833,-64.590118,132.702057,-84.939987,60.187662,24.830165,14.280172,42.401777,0.0,-1.0,101.175064,-0.33029,3.135539,-0.036886,0.175582
256706.508199,0.09475478999999999,0.37242684,9.84202965,0.004534,-0.000308,0.003691,-64.560867,132.741074,-84.872543,60.187662,24.830165,14.280172,42.401777,0.0,-1.0,101.175064,-0.33029,3.13552,-0.036899,0.17561
256706.528185,0.029341710000000003,0.3558087,9.771230880000001,0.003472,0.003551,0.00476,-64.557587,132.719269,-84.909775,60.187662,24.830165,14.280172,42.401777,0.0,-1.0,101.175064,-0.33029,3.135519,-0.036903,0.175607
256706.548171,0.0520911,0.37092590999999997,9.700432110000001,0.003,-0.000635,0.003879,-64.365311,132.909668,-84.615448,60.187662,24.830165,14.280172,42.401777,0.0,-1.0,101.175064,-0.33029,3.135536,-0.03691,0.175601
256706.568157,0.06975891000000001,0.33904341000000005,9.779010210000001,0.003,-0.000635,0.003879,-64.497009,132.896545,-84.942123,60.187662,24.830165,14.280172,42.401777,0.0,-1.0,101.175064,-0.33029,3.135528,-0.036924,0.175632
256706.588143,0.057633750000000004,0.34308513,9.7926363,0.001733,0.001363,0.004648,-64.441513,132.773773,-84.794891,60.187662,24.830165,14.280172,42.401777,0.0,-1.0,101.175064,-0.33029,3.13553,-0.036935,0.175629
256706.608129,0.058977720000000004,0.32377905,9.74114361,0.001594,-0.001891,0.002213,-64.405518,132.931961,-84.696106,60.187662,24.830165,14.280172,42.401777,0.0,-1.0,101.175064,-0.33029,3.135529,-0.036922,0.175612
256706.628115,0.07005321,0.32213097,9.76044969,0.003087,-0.000813,0.003005,-64.413345,132.905807,-84.571243,60.187662,24.830165,14.280172,42.401777,0.0,-1.0,101.175064,-0.33029,3.135529,-0.036927,0.175629
256706.648101,0.07424208,0.29742939,9.784101600000001,0.003174,-0.000713,0.003974,-64.309982,133.128845,-84.593338,60.187662,24.830165,14.280172,42.401777,0.0,-1.0,101.175064,-0.33029,3.135536,-0.036921,0.175654
256706.668087,0.05972328,0.32856633,9.764942670000002,0.00357,-0.002404,0.001184,-64.423126,133.275467,-84.888184,60.187662,24.830165,14.280172,42.401777,0.0,-1.0,101.175064,-0.33029,3.135537,-0.036925,0.175662
256706.688073,0.06811083000000001,0.3179421,9.796079610000001,0.00357,-0.002404,0.001184,-64.481598,133.153931,-84.798431,60.187662,24.830165,14.280172,42.401777,0.0,-1.0,101.175064,-0.33029,3.135534,-0.036931,0.175671
256706.708059,0.05583852,0.3008727,9.804015900000001,0.003955,-6.2e-05,0.004193,-64.408218,133.055832,-84.67662,60.187662,24.830165,14.280172,42.401777,0.0,-1.0,101.175064,-0.33029,3.135541,-0.036934,0.175691
256706.728045,0.05747679,0.33141123,9.78620094,0.005126,0.001587,0.004353,-64.385437,133.183105,-84.853149,60.187662,24.830165,14.280172,42.401777,0.0,-1.0,101.175064,-0.33029,3.135563,-0.036934,0.175691
256706.748032,0.06675705000000001,0.3270654,9.77601816,0.003484,0.003325,0.004768,-64.478775,132.981216,-84.73848,60.187662,24.830165,14.280172,42.401777,0.0,-1.0,101.175064,-0.33029,3.135563,-0.036931,0.175673
256706.768018,0.054936000000000006,0.34652844000000005,9.78021684,0.001959,-0.001993,0.005592,-64.445389,133.241577,-84.628143,60.187662,24.830165,14.280172,42.401777,0.0,-1.0,101.175064,-0.33029,3.13556,-0.036913,0.175689
256706.788005,0.05403348,0.35281665,9.775272600000001,0.004123,0.000638,0.004204,-64.430115,132.990845,-84.688873,60.187662,24.830165,14.280172,42.401777,0.0,-1.0,101.175095,-0.332932,3.135549,-0.036895,0.175698
256706.807991,0.05268951,0.33380487000000003,9.80550702,0.002126,-0.000691,0.002905,-64.424942,132.980927,-84.745789,60.187662,24.830165,14.280172,42.401777,0.0,-1.0,101.175095,-0.332932,3.135539,-0.036863,0.175665
256706.827977,0.04909905,0.347274,9.78874173,0.002671,-0.003327,0.001862,-64.44278,132.867966,-84.692551,60.187662,24.830165,14.280172,42.401777,0.0,-1.0,101.175095,-0.332932,3.135546,-0.036828,0.175661
256706.847963,0.05988024,0.35715267000000006,9.74547963,0.004226,-0.000703,0.003612,-64.473923,133.039719,-84.438919,60.187662,24.830165,14.280172,42.401777,0.0,-1.0,101.175095,-0.332932,3.135556,-0.036819,0.175665
256706.867949,0.055534410000000006,0.34308513,9.77632227,0.00215,-0.001398,0.004616,-64.3936,132.833252,-84.513138,60.187662,24.830165,14.280172,42.401777,0.0,-1.0,101.175095,-0.332932,3.135542,-0.036813,0.175668
256706.887935,0.056878380000000006,0.35999757000000004,9.78201207,0.002989,0.001226,0.005101,-64.377838,132.968735,-84.244186,60.187662,24.830165,14.280172,42.401777,0.0,-1.0,101.175095,-0.332932,3.135537,-0.036826,0.175685
256706.907921,0.06990606,0.35431757999999997,9.77646942,0.002718,0.00215,0.003382,-64.531189,133.078339,-84.513611,60.187662,24.830165,14.280172,42.401777,0.0,-1.0,101.175095,-0.332932,3.135549,-0.036821,0.175667
256706.927907,0.05223825,0.33889626,9.764942670000002,0.00297,-0.001571,0.003588,-64.437775,133.043503,-84.503525,60.187662,24.830165,14.280172,42.401777,0.0,-1.0,101.175095,-0.332932,3.13554,-0.036816,0.175674
256706.967879,0.05972328,0.35071731,9.78005988,0.003709,-0.00086,0.002611,-64.259277,133.004791,-84.561996,60.187662,24.830165,14.280172,42.401777,0.0,-1.0,101.175095,-0.332932,3.135574,-0.03682,0.175682
256706.987865,0.051198389999999996,0.32646699000000007,9.79593246,0.001842,-0.002686,0.004074,-64.419556,133.099564,-84.322739,60.187662,24.830165,14.280172,42.401777,0.0,-1.0,101.175095,-0.332932,3.135573,-0.036824,0.175694
256707.007851,0.05703534,0.34159401,9.77063247,0.004073,0.000437,0.00305,-64.375748,133.151062,-84.512756,60.187662,24.830165,14.280172,42.401777,0.0,-1.0,101.175095,-0.332932,3.13556,-0.036828,0.175693
256707.027837,0.05583852,0.33530580000000004,9.783807300000001,0.004765,-0.001839,0.003222,-64.590668,133.166077,-84.541031,60.187662,24.830165,14.280172,42.401777,0.0,-1.0,101.175095,-0.332932,3.135566,-0.036821,0.175699
256707.047823,0.063765,0.32377905,9.779314320000001,0.003395,-0.000711,0.003211,-64.564972,133.115845,-84.499786,60.187662,24.830165,14.280172,42.401777,0.0,-1.0,101.175095,-0.332932,3.135556,-0.036823,0.175703
256707.06781,0.04371336,0.3210813,9.78529842,0.003163,0.000578,0.00288,-64.390137,133.205048,-84.45195,60.187662,24.830165,14.280172,42.401777,0.0,-1.0,101.175095,-0.332932,3.135563,-0.036809,0.175701
256707.087796,0.05343507,0.34114275,9.76464837,0.003382,0.000506,0.005496,-64.541306,133.053024,-84.40419,60.187662,24.830165,14.280172,42.401777,0.0,-1.0,101.175095,-0.332932,3.135575,-0.036783,0.175713
256707.107782,0.05568156,0.32646699000000007,9.795334050000001,0.000852,0.001708,0.004793,-64.371643,132.967834,-84.45961,60.187662,24.830165,14.280172,42.401777,0.0,-1.0,101.175095,-0.332932,3.135585,-0.036763,0.175715
256707.107782,0.05568156,0.32646699000000007,9.795334050000001,0.000852,0.001708,0.004793,-64.371643,132.967834,-84.45961,60.187662,24.830165,14.280172,42.401777,0.0,-1.0,101.175095,-0.332932,3.135585,-0.036763,0.175715
256707.127768,0.059576130000000005,0.33500169,9.779010210000001,0.001317,0.001712,0.004818,-64.651016,132.926407,-84.341827,60.187662,24.830165,14.280172,42.401777,0.0,-1.0,101.175095,-0.332932,3.135583,-0.036737,0.175715
256707.16774,0.05268951,0.34203546,9.793087560000002,0.002217,-0.001714,0.003405,-64.358459,133.190445,-84.509354,60.187662,24.830165,14.280172,42.401777,0.0,-1.0,101.175095,-0.332932,3.13561,-0.036709,0.175722
256707.187726,0.05673123,0.35880075000000006,9.79398027,0.004118,-0.001672,0.004321,-64.594238,133.127182,-84.678818,60.187662,24.830165,14.280172,42.401777,0.0,-1.0,101.175095,-0.332932,3.135629,-0.036688,0.175734
256707.207712,0.05223825,0.35207109,9.76764042,0.00658,-0.000291,0.004466,-64.56192,132.925873,-84.574814,60.187662,24.830165,14.280172,42.401777,0.0,-1.0,101.175095,-0.332932,3.135629,-0.036682,0.175741
256707.227698,0.05299362,0.33874911,9.77797035,0.004863,-0.00097,0.003745,-64.677536,133.061829,-84.60141,60.187662,24.830165,14.280172,42.401777,0.0,-1.0,101.175095,-0.332932,3.135631,-0.036669,0.175744
256707.247684,0.05627997,0.33904341000000005,9.80222067,0.003307,0.000421,0.004296,-64.530411,132.834442,-84.538635,60.187662,24.830165,14.280172,42.401777,0.0,-1.0,101.175095,-0.332932,3.135638,-0.036677,0.175735
256707.26767,0.06196977,0.34308513,9.77302611,0.004141,0.002016,0.005489,-64.383438,133.161743,-84.576111,60.187662,24.830165,14.280172,42.401777,0.0,-1.0,101.175095,-0.332932,3.135643,-0.036681,0.175739
256707.287656,0.06271533,0.32946885,9.78919299,0.002712,0.001826,0.004183,-64.659073,132.998917,-84.587784,60.187662,24.830165,14.280172,42.401777,0.0,-1.0,101.175095,-0.332932,3.135655,-0.03668,0.175736
256707.307643,0.04235958,0.33844500000000005,9.77452704,0.002443,3e-05,0.003145,-64.689331,132.770172,-84.673996,60.187662,24.830165,14.280172,42.401777,0.0,-1.0,101.175095,-0.332932,3.135663,-0.036666,0.175736
256707.327629,0.06811083000000001,0.34847082,9.7579089,0.002594,-0.001447,0.002801,-64.603317,133.13707,-84.566742,60.187662,24.830165,14.280172,42.401777,0.0,-1.0,101.175095,-0.332932,3.135676,-0.036666,0.175737
256707.347615,0.07349652000000001,0.34143705,9.7692885,0.001529,-0.002843,0.003785,-64.755661,133.051498,-84.384674,60.187662,24.830165,14.280172,42.401777,0.0,-1.0,101.175095,-0.332932,3.135678,-0.03666,0.175735
256707.367601,0.053739180000000004,0.34188831000000003,9.78185511,0.004384,0.000118,0.003384,-64.594986,133.048019,-84.361923,60.187662,24.830165,14.280172,42.401777,0.0,-1.0,101.175095,-0.332932,3.135672,-0.036638,0.175733
256707.387587,0.06316659000000001,0.32347494000000004,9.78305193,0.003856,-0.000299,0.003283,-64.682755,133.030716,-84.442413,60.187662,24.830165,14.280172,42.401777,0.0,-1.0,101.175095,-0.332932,3.135672,-0.036626,0.175732
256707.407573,0.06466752,0.33320646000000004,9.77706783,0.004637,0.001035,0.003547,-64.536804,133.03688,-84.858017,60.187662,24.830165,14.280172,42.401777,0.0,-1.0,101.175095,-0.332932,3.135676,-0.036613,0.175722
256707.427559,0.05089428,0.33066567,9.768690090000002,0.004637,0.001035,0.003547,-64.716614,133.017288,-84.501434,60.187689,24.830122,13.818916,48.10946,0.0,-1.0,101.175095,-0.332932,3.135669,-0.036599,0.175715
256707.447545,0.05583852,0.34997175,9.775566900000001,0.003075,0.002136,0.005081,-64.568924,132.909393,-84.701523,60.187689,24.830122,13.818916,48.10946,0.0,-1.0,101.175095,-0.332932,3.135671,-0.036586,0.175697
256707.467531,0.07110288000000001,0.32766381,9.76733631,0.001658,0.001446,0.003109,-64.828171,132.984726,-84.615585,60.187689,24.830122,13.818916,48.10946,0.0,-1.0,101.175095,-0.332932,3.135673,-0.036571,0.175685
256707.487517,0.05299362,0.34847082,9.77362452,0.002849,6.4e-05,0.004594,-64.574936,132.948547,-84.81044,60.187689,24.830122,13.818916,48.10946,0.0,-1.0,101.175095,-0.332932,3.135664,-0.036544,0.175674
256707.507503,0.050590170000000004,0.35311095000000003,9.77018121,0.002355,-0.001009,0.003992,-64.834045,132.978317,-84.834244,60.187689,24.830122,13.818916,48.10946,0.0,-1.0,101.175095,-0.332932,3.135655,-0.03653,0.175672
256707.52749,0.055230299999999996,0.34383069,9.77092677,0.00393,-0.000929,0.002876,-64.587494,133.026382,-84.662994,60.187689,24.830122,13.818916,48.10946,0.0,-1.0,101.175095,-0.332932,3.135649,-0.036515,0.175685
256707.547476,0.05583852,0.33978897,9.78185511,0.00381,-0.001117,0.001722,-64.708054,133.035263,-84.608856,60.187689,24.830122,13.818916,48.10946,0.0,-1.0,101.175095,-0.332932,3.135652,-0.036515,0.175684
256707.567462,0.054190440000000006,0.33978897,9.77317326,0.004061,-0.000281,0.003837,-64.498108,133.071487,-84.707718,60.187689,24.830122,13.818916,48.10946,0.0,-1.0,101.175095,-0.332932,3.135639,-0.036512,0.175678
256707.607434,0.05328792,0.31854051,9.79009551,0.002281,0.000971,0.004055,-64.475113,133.157562,-84.501373,60.187689,24.830122,13.818916,48.10946,0.0,-1.0,101.175095,-0.332932,3.135658,-0.036515,0.175675
256707.62742,0.04565574000000001,0.33305931000000005,9.78290478,0.002389,0.000303,0.003733,-64.539246,132.909836,-84.625977,60.187689,24.830122,13.818916,48.10946,0.0,-1.0,101.175095,-0.332932,3.135655,-0.036497,0.17569
256707.647406,0.06541308000000001,0.33590421000000004,9.792783450000002,0.001994,0.001064,0.003488,-64.546936,133.004044,-84.743378,60.187689,24.830122,13.818916,48.10946,0.0,-1.0,101.175095,-0.332932,3.135664,-0.036487,0.175676
256707.667392,0.057633750000000004,0.33695388,9.791292330000001,0.001621,0.000521,0.001974,-64.546936,133.004044,-84.743378,60.187689,24.830122,13.818916,48.10946,0.0,-1.0,101.175095,-0.332932,3.135675,-0.036462,0.175674
256707.667392,0.057633750000000004,0.33695388,9.791292330000001,0.001621,0.000521,0.001974,-64.546936,133.004044,-84.743378,60.187689,24.830122,13.818916,48.10946,0.0,-1.0,101.175095,-0.332932,3.135675,-0.036462,0.175674
256707.707364,0.07184844,0.33246090000000006,9.764795520000002,0.003081,-8.1e-05,0.003699,-64.493668,133.144012,-84.659958,60.187689,24.830122,13.818916,48.10946,0.0,-1.0,101.175095,-0.332932,3.135692,-0.036446,0.1757
256707.72735,0.053886329999999996,0.33605136,9.7784118,0.003351,-0.001838,0.003355,-64.562607,133.151932,-84.659409,60.187689,24.830122,13.818916,48.10946,0.0,-1.0,101.175095,-0.332932,3.135693,-0.036438,0.175703
256707.72735,0.053886329999999996,0.33605136,9.7784118,0.003351,-0.001838,0.003355,-64.562607,133.151932,-84.659409,60.187689,24.830122,13.818916,48.10946,0.0,-1.0,101.175095,-0.332932,3.135693,-0.036438,0.175703
256707.747336,0.06691401,0.35401347000000005,9.77077962,0.005957,0.000654,0.002704,-64.513412,133.150742,-84.365295,60.187689,24.830122,13.818916,48.10946,0.0,-1.0,101.175095,-0.332932,3.135689,-0.036446,0.17571
256707.787308,0.055230299999999996,0.33365772000000005,9.8068608,0.002419,0.000216,0.005353,-64.417007,133.324783,-84.581909,60.187689,24.830122,13.818916,48.10946,0.0,-1.0,101.175095,-0.332932,3.135705,-0.036431,0.175714
256707.807294,0.0580752,0.37287810000000005,9.764942670000002,0.004959,0.001549,0.005401,-64.447281,133.314423,-84.458893,60.187689,24.830122,13.818916,48.10946,0.0,-1.0,101.175095,-0.332932,3.135712,-0.036417,0.175696
256707.807294,0.0580752,0.37287810000000005,9.764942670000002,0.004959,0.001549,0.005401,-64.447281,133.314423,-84.458893,60.187689,24.830122,13.818916,48.10946,0.0,-1.0,101.175095,-0.332932,3.135712,-0.036417,0.175696
256707.847266,0.0520911,0.33574725,9.79069392,0.002519,-0.000252,0.001743,-64.515808,133.462265,-84.302704,60.187689,24.830122,13.818916,48.10946,0.0,-1.0,101.175095,-0.332932,3.135712,-0.036406,0.175726
256707.867252,0.06990606,0.35820234,9.75745764,0.002962,-0.000421,0.003482,-64.471832,133.376907,-84.3797,60.187689,24.830122,13.818916,48.10946,0.0,-1.0,101.175255,-0.346144,3.135713,-0.036386,0.175744
256707.887238,0.05328792,0.34159401,9.79877736,0.003068,-0.001336,0.00265,-64.479858,133.325592,-84.05777,60.187689,24.830122,13.818916,48.10946,0.0,-1.0,101.175255,-0.346144,3.135712,-0.036388,0.17576
256707.907224,0.06047865000000001,0.32242527000000004,9.77032836,0.003564,-0.000304,0.002905,-64.455017,133.266739,-84.359268,60.187689,24.830122,13.818916,48.10946,0.0,-1.0,101.175255,-0.346144,3.135704,-0.036385,0.175765
256707.92721,0.06107706,0.32871348000000006,9.75446559,0.00228,-0.000612,0.004913,-64.508133,133.388153,-84.028381,60.187689,24.830122,13.818916,48.10946,0.0,-1.0,101.175255,-0.346144,3.135714,-0.036389,0.175773
256707.947197,0.06466752,0.34143705,9.787996170000001,0.003464,0.00209,0.005369,-64.51973,133.191132,-84.350464,60.187689,24.830122,13.818916,48.10946,0.0,-1.0,101.175255,-0.346144,3.135712,-0.036388,0.175758
256707.967183,0.055230299999999996,0.33440328,9.77721498,0.003464,0.00209,0.005369,-64.597656,133.144012,-84.436874,60.187689,24.830122,13.818916,48.10946,0.0,-1.0,101.175255,-0.346144,3.135709,-0.036381,0.175748
256707.987169,0.057633750000000004,0.33799374,9.7986204,0.003529,0.002165,0.006252,-64.745392,133.185989,-84.438553,60.187689,24.830122,13.818916,48.10946,0.0,-1.0,101.175255,-0.346144,3.135719,-0.036383,0.175744
256708.007155,0.0634707,0.34607718,9.76688505,0.002254,-0.000332,0.002613,-64.632263,133.120026,-84.253265,60.187689,24.830122,13.818916,48.10946,0.0,-1.0,101.175255,-0.346144,3.135712,-0.036361,0.175746
256708.027141,0.052542359999999996,0.34877493000000004,9.780815250000002,0.00349,-0.001319,0.003601,-64.62291,133.068924,-84.409225,60.187689,24.830122,13.818916,48.10946,0.0,-1.0,101.175255,-0.346144,3.135711,-0.036352,0.175752
256708.047127,0.05463189,0.33755229000000003,9.78515127,0.00259,-0.000452,0.003041,-64.810242,133.414337,-84.514969,60.187689,24.830122,13.818916,48.10946,0.0,-1.0,101.175255,-0.346144,3.135698,-0.036333,0.175741
256708.067113,0.05299362,0.35027586000000005,9.787544910000001,0.003269,-0.00267,0.003345,-64.639374,133.260513,-84.523361,60.187689,24.830122,13.818916,48.10946,0.0,-1.0,101.175255,-0.346144,3.135687,-0.036312,0.175755
256708.087099,0.03981879,0.35461188,9.7866522,0.00423,-0.000529,0.003852,-64.756866,133.310287,-84.330093,60.187689,24.830122,13.818916,48.10946,0.0,-1.0,101.175255,-0.346144,3.135681,-0.036309,0.175764
256708.107085,0.05883057,0.34054434000000006,9.77646942,0.003365,0.000655,0.004385,-64.699295,133.176208,-84.386597,60.187689,24.830122,13.818916,48.10946,0.0,-1.0,101.175255,-0.346144,3.135674,-0.036311,0.175763
256708.127072,0.05299362,0.33664977,9.783503190000001,0.004264,0.000569,0.005887,-64.654083,133.132919,-84.45195,60.187689,24.830122,13.818916,48.10946,0.0,-1.0,101.175255,-0.346144,3.135673,-0.036306,0.175759
256708.147058,0.0520911,0.33619851000000006,9.768385980000001,0.001645,0.001507,0.004318,-64.63501,133.009338,-84.257126,60.187689,24.830122,13.818916,48.10946,0.0,-1.0,101.175255,-0.346144,3.135677,-0.036285,0.17574
256708.167044,0.055230299999999996,0.34906923,9.784248750000001,0.002287,0.001451,0.00454,-64.539429,133.242188,-84.440506,60.187689,24.830122,13.818916,48.10946,0.0,-1.0,101.175255,-0.346144,3.135683,-0.036288,0.17574
256708.18703,0.06287229,0.32841918000000003,9.771378030000001,0.001103,-0.000398,0.004171,-64.46994,133.219849,-84.379181,60.187689,24.830122,13.818916,48.10946,0.0,-1.0,101.175255,-0.346144,3.135693,-0.036278,0.175742
256708.227002,0.06196977,0.34159401,9.78545538,0.002935,-0.002113,0.004372,-64.523331,133.290543,-84.460175,60.187689,24.830122,13.818916,48.10946,0.0,-1.0,101.175255,-0.346144,3.135668,-0.03625,0.17574
256708.246988,0.059428980000000006,0.33889626,9.79189074,0.003996,-0.000379,0.001882,-64.398712,133.460526,-84.413849,60.187689,24.830122,13.818916,48.10946,0.0,-1.0,101.175255,-0.346144,3.135659,-0.036234,0.175748
256708.266974,0.04355640000000001,0.34263387,9.78560253,0.00326,-0.000916,0.002493,-64.384918,133.398819,-84.635742,60.187689,24.830122,13.818916,48.10946,0.0,-1.0,101.175255,-0.346144,3.135662,-0.036231,0.175773
256708.266974,0.04355640000000001,0.34263387,9.78560253,0.00326,-0.000916,0.002493,-64.384918,133.398819,-84.635742,60.187689,24.830122,13.818916,48.10946,0.0,-1.0,101.175255,-0.346144,3.135662,-0.036231,0.175773
256708.306947,0.05927202,0.33755229000000003,9.77407578,0.004209,0.00071,0.004691,-64.517593,133.27681,-84.285461,60.187689,24.830122,13.818916,48.10946,0.0,-1.0,101.175255,-0.346144,3.13566,-0.03621,0.175782
256708.326933,0.04909905,0.33634566,9.787093650000001,0.001638,0.001623,0.005387,-64.286057,133.366669,-84.343903,60.187689,24.830122,13.818916,48.10946,0.0,-1.0,101.175255,-0.346144,3.135661,-0.036188,0.175775
256708.346919,0.06900354,0.36344088,9.784101600000001,0.003012,0.000479,0.004413,-64.262878,133.343063,-84.300278,60.187689,24.830122,13.818916,48.10946,0.0,-1.0,101.175255,-0.346144,3.135681,-0.036183,0.175779
256708.346919,0.06900354,0.36344088,9.784101600000001,0.003012,0.000479,0.004413,-64.262878,133.343063,-84.300278,60.187689,24.830122,13.818916,48.10946,0.0,-1.0,101.175255,-0.346144,3.135681,-0.036183,0.175779
256708.386891,0.0606258,0.34802937000000006,9.77048532,0.003588,-0.001104,0.003967,-64.312302,133.382202,-84.43399,60.187689,24.830122,13.818916,48.10946,0.0,-1.0,101.175255,-0.346144,3.135686,-0.036152,0.175751
256708.386891,0.0606258,0.34802937000000006,9.77048532,0.003588,-0.001104,0.003967,-64.312302,133.382202,-84.43399,60.187689,24.830122,13.818916,48.10946,0.0,-1.0,101.175255,-0.346144,3.135686,-0.036152,0.175751
256708.406877,0.06361785,0.34398765000000003,9.78859458,0.003639,-0.000323,0.005304,-64.243225,133.458313,-84.277924,60.187689,24.830122,13.818916,48.10946,0.0,-1.0,101.175255,-0.346144,3.135679,-0.036158,0.175751
256708.446849,0.06421626,0.33799374,9.767493270000001,0.004744,0.000242,0.005631,-64.427307,133.321991,-84.338226,60.187689,24.830121,13.818916,48.418191,0.0,-1.0,101.175255,-0.346144,3.135667,-0.036184,0.175747
256708.466836,0.05343507,0.34293798000000003,9.80026848,0.003648,0.001922,0.005292,-64.274704,133.400345,-84.312912,60.187689,24.830121,13.818916,48.418191,0.0,-1.0,101.175255,-0.346144,3.135697,-0.036181,0.175742
256708.466836,0.05343507,0.34293798000000003,9.80026848,0.003648,0.001922,0.005292,-64.274704,133.400345,-84.312912,60.187689,24.830121,13.818916,48.418191,0.0,-1.0,101.175255,-0.346144,3.135697,-0.036181,0.175742
256708.506808,0.06151851,0.34473321,9.791135370000001,0.002295,0.002201,0.003854,-64.442856,133.250656,-84.319748,60.187689,24.830121,13.818916,48.418191,0.0,-1.0,101.175255,-0.346144,3.135716,-0.036177,0.175731
256708.526794,0.045802890000000006,0.33170553,9.801171,0.0028,-0.000641,0.003189,-64.451721,133.207687,-84.363297,60.187689,24.830121,13.818916,48.418191,0.0,-1.0,101.175255,-0.346144,3.135724,-0.036162,0.175728
256708.54678,0.07424208,0.34802937000000006,9.76943565,0.002721,0.000708,0.003573,-64.388596,133.461075,-83.991425,60.187689,24.830121,13.818916,48.418191,0.0,-1.0,101.175255,-0.346144,3.135725,-0.036154,0.175738
256708.54678,0.07424208,0.34802937000000006,9.76943565,0.002721,0.000708,0.003573,-64.388596,133.461075,-83.991425,60.187689,24.830121,13.818916,48.418191,0.0,-1.0,101.175255,-0.346144,3.135725,-0.036154,0.175738
256708.586752,0.05972328,0.35236539,9.78290478,0.003616,-0.000561,0.004657,-64.466736,133.201721,-84.295609,60.187689,24.830121,13.818916,48.418191,0.0,-1.0,101.175255,-0.346144,3.135736,-0.036155,0.175737
256708.606738,0.05478885,0.3529638,9.771976440000001,0.004578,-0.000186,0.004007,-64.561386,133.222992,-84.121399,60.187689,24.830121,13.818916,48.418191,0.0,-1.0,101.175255,-0.346144,3.13574,-0.036163,0.175737
256708.626725,0.06601149,0.35027586000000005,9.763451550000001,0.003204,0.000806,0.003758,-64.411407,133.290985,-84.267288,60.187689,24.830121,13.818916,48.418191,0.0,-1.0,101.175255,-0.346144,3.135734,-0.036177,0.175729
256708.646711,0.06017454,0.34906923,9.76599234,0.003847,0.000217,0.002653,-64.515915,133.416901,-84.614853,60.187689,24.830121,13.818916,48.418191,0.0,-1.0,101.175255,-0.346144,3.13573,-0.036178,0.175743
256708.666697,0.05852646,0.329616,9.76374585,0.004478,0.001237,0.005243,-64.332291,133.309921,-84.655212,60.187689,24.830121,13.818916,48.418191,0.0,-1.0,101.175255,-0.346144,3.135739,-0.036155,0.175747
256708.686683,0.05194395,0.35057015999999996,9.77797035,0.001834,0.000447,0.004458,-64.50296,133.324417,-84.578735,60.187689,24.830121,13.818916,48.418191,0.0,-1.0,101.175255,-0.346144,3.135727,-0.036154,0.175751
256708.706669,0.054190440000000006,0.34338924000000004,9.76374585,0.002732,-0.00126,0.003773,-64.583054,133.166092,-84.625977,60.187689,24.830121,13.818916,48.418191,0.0,-1.0,101.175255,-0.346144,3.13573,-0.036154,0.175753
256708.726655,0.06406911000000001,0.33978897,9.78560253,0.00163,-0.001835,0.002618,-64.677368,133.032745,-84.634415,60.187689,24.830121,13.818916,48.418191,0.0,-1.0,101.175255,-0.346144,3.135731,-0.036148,0.175741
256708.746641,0.062116920000000006,0.34593003000000005,9.75356307,0.002752,-0.002225,0.003692,-64.429626,133.281021,-84.585373,60.187689,24.830121,13.818916,48.418191,0.0,-1.0,101.175255,-0.346144,3.135705,-0.036135,0.175748
256708.766627,0.05583852,0.34518447,9.774968490000001,0.002903,-0.000236,0.002089,-64.531097,133.160049,-84.444305,60.187689,24.830121,13.818916,48.418191,0.0,-1.0,101.175255,-0.346144,3.135699,-0.036136,0.175734
256708.786614,0.06481467,0.34533162,9.75461274,0.003471,0.000202,0.003061,-64.426422,133.249603,-84.38678,60.187689,24.830121,13.818916,48.418191,0.0,-1.0,101.175255,-0.346144,3.135689,-0.036137,0.175751
256708.8066,0.054936000000000006,0.34083863999999997,9.77661657,0.00296,0.001769,0.003796,-64.620972,133.345245,-84.260849,60.187689,24.830121,13.818916,48.418191,0.0,-1.0,101.175255,-0.346144,3.135691,-0.036134,0.175752
256708.826586,0.05478885,0.34847082,9.77092677,0.003421,0.001127,0.004547,-64.417557,133.236877,-84.661591,60.187689,24.830121,13.818916,48.418191,0.0,-1.0,101.175255,-0.346144,3.135712,-0.03613,0.175728
