timestamp,accel_x,accel_y,accel_z,gyro_x,gyro_y,gyro_z,mag_x,mag_y,mag_z,gps_lat,gps_lon,gps_alt,gps_accuracy,gps_speed,gps_course,pressure,altitude,roll,pitch,yaw
258447.625387,-0.11197134000000002,-0.20207619000000002,-9.832150980000002,0.004488,-0.000366,0.005167,-46.334518,153.988266,-170.855927,60.187678,24.830117,13.43801,23.776657,-1.0,-1.0,101.157265,1.154694,-0.012794,0.02117,-1.009049
258447.625387,-0.11197134000000002,-0.20207619000000002,-9.832150980000002,0.004488,-0.000366,0.005167,-46.334518,153.988266,-170.855927,60.187678,24.830117,13.43801,23.776657,-1.0,-1.0,101.157265,1.154694,-0.012794,0.02117,-1.009049
258447.665359,-0.12828537,-0.20851155000000002,-9.81898596,0.003376,0.000821,0.00342,-46.330536,154.068756,-170.783676,60.187678,24.830117,13.43801,23.776657,-1.0,-1.0,101.157265,1.154694,-0.012786,0.021184,-1.009047
258447.685346,-0.1240965,-0.19923129,-9.82511721,0.003994,-0.000219,0.004655,-46.496674,153.972412,-170.806671,60.187678,24.830117,13.43801,23.776657,-1.0,-1.0,101.157265,1.154694,-0.012799,0.021191,-1.009051
258447.705332,-0.12693159,-0.2225889,-9.81688662,0.002761,0.001095,0.005213,-46.46312,153.930496,-170.617615,60.187678,24.830117,13.43801,23.776657,-1.0,-1.0,101.157265,1.154694,-0.012805,0.021198,-1.008986
258447.725318,-0.12633318000000002,-0.19250163000000003,-9.81509139,0.003125,0.000846,0.004446,-46.398132,154.056778,-170.707352,60.187678,24.830117,13.43801,23.776657,-1.0,-1.0,101.157265,1.154694,-0.012793,0.021192,-1.008916
258447.745304,-0.12618603,-0.20283156000000002,-9.819427410000001,0.003148,0.000593,0.003716,-46.483078,153.93457,-170.581146,60.187678,24.830117,13.43801,23.776657,-1.0,-1.0,101.157265,1.154694,-0.012794,0.021188,-1.00878
258447.76529,-0.12214431,-0.20567646,-9.823027680000001,0.002903,0.000408,0.003038,-46.500778,153.992279,-170.465317,60.187678,24.830117,13.43801,23.776657,-1.0,-1.0,101.157265,1.154694,-0.012786,0.021198,-1.008649
258447.785277,-0.12034908,-0.20013381,-9.82377324,0.002853,0.000302,0.003853,-46.464813,153.752777,-170.731964,60.187678,24.830117,13.43801,23.776657,-1.0,-1.0,101.157265,1.154694,-0.012796,0.021199,-1.008372
258447.825249,-0.12199716,-0.21704625,-9.81509139,0.002996,-0.000505,0.004126,-46.526611,153.994095,-170.674438,60.187678,24.830117,13.43801,23.776657,-1.0,-1.0,101.157265,1.154694,-0.01279,0.021199,-1.00811
258447.825249,-0.12199716,-0.21704625,-9.81509139,0.002996,-0.000505,0.004126,-46.526611,153.994095,-170.674438,60.187678,24.830117,13.43801,23.776657,-1.0,-1.0,101.157265,1.154694,-0.01279,0.021199,-1.00811
258447.865222,-0.13247424000000002,-0.22063671,-9.81777933,0.003497,0.000519,0.004306,-46.70697,153.966141,-170.368896,60.187678,24.830117,13.43801,23.776657,-1.0,-1.0,101.157265,1.154694,-0.012789,0.02118,-1.008066
258447.865222,-0.13247424000000002,-0.22063671,-9.81777933,0.003497,0.000519,0.004306,-46.70697,153.966141,-170.368896,60.187678,24.830117,13.43801,23.776657,-1.0,-1.0,101.157265,1.154694,-0.012789,0.02118,-1.008066
258447.905194,-0.13412232000000002,-0.20342997,-9.803113380000001,0.002238,0.000425,0.004979,-46.377426,153.921555,-170.124405,60.187678,24.830117,13.43801,23.776657,-1.0,-1.0,101.157265,1.154694,-0.01279,0.021177,-1.007949
258447.92518,-0.12513636,-0.20522520000000002,-9.826912440000001,0.001634,0.001569,0.004664,-46.540512,154.002853,-170.185837,60.187678,24.830117,13.43801,23.776657,-1.0,-1.0,101.157265,1.154694,-0.012783,0.021175,-1.007889
258447.92518,-0.12513636,-0.20522520000000002,-9.826912440000001,0.001634,0.001569,0.004664,-46.540512,154.002853,-170.185837,60.187678,24.830117,13.43801,23.776657,-1.0,-1.0,101.157265,1.154694,-0.012783,0.021175,-1.007889
258447.92518,-0.12513636,-0.20522520000000002,-9.826912440000001,0.001634,0.001569,0.004664,-46.540512,154.002853,-170.185837,60.187678,24.830117,13.43801,23.776657,-1.0,-1.0,101.157265,1.154694,-0.012783,0.021175,-1.007889
258447.945166,-0.13337676,-0.2023803,-9.8213796,0.002611,0.000489,0.004777,-46.564941,153.988663,-170.278229,60.187678,24.830117,13.43801,23.776657,-1.0,-1.0,101.156982,1.178474,-0.012779,0.021168,-1.007836
258447.985139,-0.12319398000000001,-0.20058507,-9.817033770000002,0.00293,-0.000185,0.003545,-46.597763,153.866837,-170.484024,60.187678,24.830117,13.43801,23.776657,-1.0,-1.0,101.156982,1.178474,-0.012792,0.021172,-1.007665
258448.025111,-0.12109464000000002,-0.20597076000000003,-9.82856052,0.005181,-0.000648,0.004766,-46.649796,153.762482,-170.644135,60.187678,24.830117,13.43801,23.776657,-1.0,-1.0,101.156982,1.178474,-0.012821,0.021179,-1.007273
258448.025111,-0.12109464000000002,-0.20597076000000003,-9.82856052,0.005181,-0.000648,0.004766,-46.649796,153.762482,-170.644135,60.187678,24.830117,13.43801,23.776657,-1.0,-1.0,101.156982,1.178474,-0.012821,0.021179,-1.007273
258448.065084,-0.1360647,-0.18411408,-9.82152675,0.003025,-0.000489,0.004716,-46.749054,153.759796,-170.27739,60.187678,24.830117,13.43801,23.776657,-1.0,-1.0,101.156982,1.178474,-0.012827,0.021158,-1.006722
258448.08507,-0.12094749,-0.22244175000000002,-9.82257642,0.003619,0.000369,0.004307,-46.685394,153.790924,-170.489548,60.187678,24.830117,13.43801,23.776657,-1.0,-1.0,101.156982,1.178474,-0.01282,0.021147,-1.006475
258448.105056,-0.12977649,-0.20671632,-9.818534699999999,0.004106,0.00027,0.005654,-46.787949,153.74231,-170.65303,60.187678,24.830117,13.43801,23.776657,-1.0,-1.0,101.156982,1.178474,-0.012825,0.02114,-1.006202
258448.125042,-0.11256975000000001,-0.20866851000000003,-9.830502899999999,0.002861,-0.000197,0.003837,-46.820175,153.625763,-170.622009,60.187678,24.830117,13.43801,23.776657,-1.0,-1.0,101.156982,1.178474,-0.01283,0.021141,-1.005885
258448.145029,-0.13651596,-0.20986533,-9.82197801,0.004852,0.000146,0.003461,-46.717712,153.784668,-170.411163,60.187678,24.830117,13.43801,23.776657,-1.0,-1.0,101.156982,1.178474,-0.012844,0.021135,-1.005644
258448.165015,-0.12573477,-0.20283156000000002,-9.80940159,0.00381,6.8e-05,0.003708,-46.69873,153.770508,-170.628525,60.187678,24.830117,13.43801,23.776657,-1.0,-1.0,101.156982,1.178474,-0.012841,0.021135,-1.005429
258448.185001,-0.12738285000000002,-0.19908414,-9.8333478,0.00301,-0.000654,0.003813,-46.73056,153.904266,-170.619919,60.187678,24.830117,13.43801,23.776657,-1.0,-1.0,101.156982,1.178474,-0.012849,0.02114,-1.005267
258448.204987,-0.11316816,-0.19549368000000003,-9.80865603,0.002144,-0.001141,0.004545,-46.57579,153.919327,-170.567459,60.187678,24.830117,13.43801,23.776657,-1.0,-1.0,101.156982,1.178474,-0.012845,0.02113,-1.005146
258448.224973,-0.12738285000000002,-0.18516375000000002,-9.815689800000001,0.004434,-0.000716,0.003867,-46.702118,153.818878,-170.629257,60.187678,24.830117,13.43801,23.776657,-1.0,-1.0,101.156982,1.178474,-0.012842,0.021135,-1.004934
258448.224973,-0.12738285000000002,-0.18516375000000002,-9.815689800000001,0.004434,-0.000716,0.003867,-46.702118,153.818878,-170.629257,60.187678,24.830117,13.43801,23.776657,-1.0,-1.0,101.156982,1.178474,-0.012842,0.021135,-1.004934
258448.264946,-0.12529332,-0.21360294000000002,-9.82062423,0.002824,-0.001058,0.005284,-46.680252,153.964554,-170.765213,60.187678,24.830117,13.43801,23.776657,-1.0,-1.0,101.156982,1.178474,-0.012843,0.021144,-1.004739
258448.284932,-0.12094749,-0.21120930000000002,-9.8216739,0.003005,-0.000485,0.003478,-46.532684,153.863449,-170.846085,60.187678,24.830117,13.43801,23.776657,-1.0,-1.0,101.156982,1.178474,-0.012839,0.021141,-1.004745
258448.304918,-0.12020193000000001,-0.20357712,-9.799375770000001,0.003946,-0.000985,0.004576,-46.617691,153.793839,-170.761902,60.187678,24.830117,13.43801,23.776657,-1.0,-1.0,101.156982,1.178474,-0.012843,0.02114,-1.004599
258448.324904,-0.12288987000000001,-0.210915,-9.816141060000001,0.00392,0.00014,0.004349,-46.587616,153.948273,-170.538956,60.187678,24.830117,13.43801,23.776657,-1.0,-1.0,101.156982,1.178474,-0.012837,0.021139,-1.004461
258448.344891,-0.11750418000000001,-0.20551950000000002,-9.81554265,0.002492,-0.000417,0.004989,-46.520248,153.980591,-170.653763,60.187678,24.830117,13.43801,23.776657,-1.0,-1.0,101.156982,1.178474,-0.012842,0.02114,-1.004384
258448.364877,-0.13756563000000002,-0.20417553000000002,-9.82107549,0.003392,0.000317,0.005512,-46.514496,154.046738,-170.708633,60.187678,24.830117,13.43801,23.776657,-1.0,-1.0,101.156982,1.178474,-0.012844,0.021148,-1.004362
258448.384863,-0.12589173,-0.20537235,-9.80925444,0.00395,-0.001439,0.004866,-46.535858,153.871063,-170.687302,60.187678,24.830117,13.43801,23.776657,-1.0,-1.0,101.156982,1.178474,-0.012846,0.021153,-1.004278
258448.404849,-0.11645451,-0.19489527,-9.80191656,0.003663,-0.000912,0.004101,-46.456055,153.933395,-170.757858,60.187678,24.830117,13.43801,23.776657,-1.0,-1.0,101.156982,1.178474,-0.012862,0.021149,-1.004152
258448.424836,-0.1155618,-0.20297871000000003,-9.81583695,0.004549,-0.000897,0.003892,-46.579498,153.906799,-170.712601,60.187678,24.830117,13.43801,23.776657,-1.0,-1.0,101.156982,1.178474,-0.012871,0.021163,-1.004051
258448.444822,-0.1332198,-0.20881566000000001,-9.80071974,0.003658,0.00015,0.005085,-46.461731,153.841537,-170.831314,60.187678,24.830117,13.43801,23.776657,-1.0,-1.0,101.156982,1.178474,-0.012879,0.021154,-1.003968
258448.464808,-0.12498921000000002,-0.19803447000000002,-9.829610190000002,0.004526,0.000252,0.005561,-46.43544,153.840378,-170.724319,60.187678,24.830117,13.43801,23.776657,-1.0,-1.0,101.156982,1.178474,-0.012875,0.021161,-1.003856
258448.484794,-0.12633318000000002,-0.19819143,-9.82601973,0.003753,0.000676,0.004004,-46.682297,153.801758,-170.767319,60.187678,24.830117,13.43801,23.776657,-1.0,-1.0,101.156982,1.178474,-0.012867,0.021151,-1.003691
258448.50478,-0.11929941000000001,-0.19923129,-9.808351920000002,0.00299,-0.000471,0.004005,-46.609207,153.8284,-170.614777,60.187678,24.830117,13.43801,23.776657,-1.0,-1.0,101.156982,1.178474,-0.012874,0.021145,-1.003525
258448.524767,-0.13067901,-0.20043792,-9.82152675,0.003777,0.000287,0.004714,-46.59314,153.844742,-170.812424,60.187678,24.830117,13.43801,23.776657,-1.0,-1.0,101.156982,1.178474,-0.012865,0.021147,-1.00339
258448.524767,-0.13067901,-0.20043792,-9.82152675,0.003777,0.000287,0.004714,-46.59314,153.844742,-170.812424,60.187678,24.830117,13.43801,23.776657,-1.0,-1.0,101.156982,1.178474,-0.012865,0.021147,-1.00339
258448.564739,-0.13157172,-0.19175607,-9.81777933,0.003802,-0.000112,0.005524,-46.778091,153.808167,-170.725174,60.187678,24.830117,13.43801,23.776657,-1.0,-1.0,101.156982,1.178474,-0.012878,0.021138,-1.003155
258448.584725,-0.13412232000000002,-0.21151341,-9.81254079,0.004168,-5e-05,0.002903,-46.552704,153.709641,-170.723465,60.187678,24.830117,13.43801,23.776657,-1.0,-1.0,101.156982,1.178474,-0.012872,0.021141,-1.003016
258448.624698,-0.12948219000000002,-0.19549368000000003,-9.82601973,0.002651,-0.000236,0.004751,-46.637817,153.86174,-170.381866,60.187678,24.830117,13.43801,23.776657,-1.0,-1.0,101.156982,1.178474,-0.012877,0.021123,-1.002663
258448.624698,-0.12948219000000002,-0.19549368000000003,-9.82601973,0.002651,-0.000236,0.004751,-46.637817,153.86174,-170.381866,60.187678,24.830117,13.43801,23.776657,-1.0,-1.0,101.156982,1.178474,-0.012877,0.021123,-1.002663
258448.66467,-0.11884815000000001,-0.2140542,-9.82526436,0.003419,-0.001531,0.006081,-46.603241,153.920853,-170.559616,60.187678,24.830117,13.43801,23.776657,-1.0,-1.0,101.156982,1.178474,-0.012896,0.021108,-1.002469
258448.66467,-0.11884815000000001,-0.2140542,-9.82526436,0.003419,-0.001531,0.006081,-46.603241,153.920853,-170.559616,60.187678,24.830117,13.43801,23.776657,-1.0,-1.0,101.156982,1.178474,-0.012896,0.021108,-1.002469
258448.704643,-0.11975067000000002,-0.20192904000000003,-9.81777933,0.003511,-0.001155,0.004114,-46.699203,153.50177,-170.44696,60.187678,24.830117,13.43801,23.776657,-1.0,-1.0,101.156982,1.178474,-0.012908,0.021094,-1.002286
258448.724629,-0.13067901,-0.20627487000000003,-9.82841337,0.001513,-0.000876,0.002538,-46.713608,153.716476,-170.667435,60.187678,24.830117,13.43801,23.776657,-1.0,-1.0,101.156982,1.178474,-0.012899,0.021073,-1.002006
258448.744615,-0.12903093000000002,-0.20147778000000002,-9.8159841,0.004654,-0.000198,0.002546,-46.659149,153.797089,-170.449982,60.187678,24.830117,13.43801,23.776657,-1.0,-1.0,101.156982,1.178474,-0.012888,0.021061,-1.001721
258448.764601,-0.13501503,-0.21271023000000003,-9.81628821,0.002564,0.000229,0.004845,-46.659149,153.797089,-170.449982,60.187678,24.830117,13.43801,23.776657,-1.0,-1.0,101.156982,1.178474,-0.012894,0.021068,-1.001488
258448.784587,-0.12573477,-0.2026746,-9.81793629,0.002524,-0.000784,0.0032,-46.688522,153.691635,-170.443161,60.187678,24.830117,13.43801,23.776657,-1.0,-1.0,101.156982,1.178474,-0.012887,0.021072,-1.001324
258448.804574,-0.13441662000000001,-0.19414971,-9.81434583,0.00339,-0.000638,0.003179,-46.638092,153.641739,-170.563538,60.187678,24.830117,13.43801,23.776657,-1.0,-1.0,101.156982,1.178474,-0.012892,0.021057,-1.001083
258448.82456,-0.13531914,-0.20821725000000002,-9.81239364,0.0035,-0.000752,0.002155,-46.766907,153.594696,-170.725632,60.187678,24.830117,13.43801,23.776657,-1.0,-1.0,101.156982,1.178474,-0.012896,0.021065,-1.000851
258448.82456,-0.13531914,-0.20821725000000002,-9.81239364,0.0035,-0.000752,0.002155,-46.766907,153.594696,-170.725632,60.187678,24.830117,13.43801,23.776657,-1.0,-1.0,101.156982,1.178474,-0.012896,0.021065,-1.000851
258448.864532,-0.12873663,-0.20252745000000003,-9.83200383,0.002295,0.00034,0.003457,-46.533249,153.734695,-170.755905,60.187678,24.830117,13.43801,23.776657,-1.0,-1.0,101.156982,1.178474,-0.012885,0.021049,-1.000468
258448.884519,-0.13517199,-0.20597076000000003,-9.803417490000001,0.002658,-0.000438,0.005261,-46.536621,153.865326,-170.736603,60.187678,24.830117,13.43801,23.776657,-1.0,-1.0,101.156982,1.178474,-0.01288,0.021037,-1.000353
258448.904505,-0.13142457,-0.20013381,-9.81823059,0.002284,-0.000714,0.004874,-46.695709,153.79866,-170.815933,60.187678,24.830117,13.43801,23.776657,-1.0,-1.0,101.156982,1.178474,-0.012867,0.021028,-1.000269
258448.924491,-0.12244842,-0.20747169000000001,-9.81194238,0.003972,-0.000498,0.004334,-46.685165,153.893005,-170.501404,60.187678,24.830117,13.43801,23.776657,-1.0,-1.0,101.156982,1.178474,-0.012869,0.021038,-1.000227
258448.944477,-0.12663729,-0.20986533,-9.80925444,0.004365,0.001709,0.005125,-46.636993,153.585617,-170.497467,60.187678,24.830117,13.43801,23.776657,-1.0,-1.0,101.156982,1.178474,-0.012853,0.021036,-1.00013
258448.964463,-0.12288987000000001,-0.20522520000000002,-9.82856052,0.003089,0.000211,0.003951,-46.438202,153.978851,-170.743988,60.187678,24.830117,13.43801,23.776657,-1.0,-1.0,101.156982,1.178474,-0.012858,0.021035,-1.000186
258448.98445,-0.13053186,-0.19175607,-9.81898596,0.001927,-0.000595,0.00554,-46.496689,153.928833,-170.565659,60.187678,24.830117,13.43801,23.776657,-1.0,-1.0,101.156982,1.178474,-0.012843,0.021018,-1.000243
258449.004436,-0.11137293000000001,-0.20671632,-9.81119682,0.00422,-0.000316,0.003674,-46.63092,153.898468,-170.561981,60.187678,24.830117,13.43801,23.776657,-1.0,-1.0,101.156982,1.178474,-0.01284,0.02103,-1.00021
258449.024422,-0.12513636,-0.20103633,-9.81628821,0.003843,-9.6e-05,0.003459,-46.633438,153.887833,-170.648056,60.187678,24.830117,13.43801,23.776657,-1.0,-1.0,101.156853,1.189044,-0.012842,0.021035,-1.000133
258449.044408,-0.10927359,-0.20028096,-9.81733788,0.003962,-0.000843,0.004179,-46.517883,153.909103,-170.888916,60.187678,24.830117,13.43801,23.776657,-1.0,-1.0,101.156853,1.189044,-0.012847,0.021045,-1.000092
258449.064394,-0.13232709,-0.20986533,-9.8014653,0.002412,1.2e-05,0.004158,-46.470016,153.901016,-170.652069,60.187678,24.830117,13.43801,23.776657,-1.0,-1.0,101.156853,1.189044,-0.012853,0.021038,-1.000055
258449.084381,-0.12439080000000001,-0.19399275000000002,-9.815689800000001,0.003174,0.000255,0.004336,-46.58374,153.811157,-170.531998,60.187678,24.830117,13.43801,23.776657,-1.0,-1.0,101.156853,1.189044,-0.012852,0.021038,-0.999986
258449.104367,-0.11929941000000001,-0.20551950000000002,-9.82751085,0.002604,0.000279,0.003872,-46.51062,153.829453,-170.408386,60.187678,24.830117,13.43801,23.776657,-1.0,-1.0,101.156853,1.189044,-0.012837,0.021034,-0.999926
258449.124353,-0.11989782,-0.20402838,-9.80565417,0.003021,-0.000203,0.00385,-46.599106,153.903137,-170.224686,60.187678,24.830117,13.43801,23.776657,-1.0,-1.0,101.156853,1.189044,-0.012829,0.021033,-0.999926
258449.124353,-0.11989782,-0.20402838,-9.80565417,0.003021,-0.000203,0.00385,-46.599106,153.903137,-170.224686,60.187678,24.830117,13.43801,23.776657,-1.0,-1.0,101.156853,1.189044,-0.012829,0.021033,-0.999926
258449.184312,-0.12948219000000002,-0.20627487000000003,-9.8043102,0.003549,0.000284,0.004571,-46.39328,153.91777,-170.439941,60.187678,24.830117,13.43801,23.776657,-1.0,-1.0,101.156853,1.189044,-0.012807,0.021032,-0.999739
258449.184312,-0.12948219000000002,-0.20627487000000003,-9.8043102,0.003549,0.000284,0.004571,-46.39328,153.91777,-170.439941,60.187678,24.830117,13.43801,23.776657,-1.0,-1.0,101.156853,1.189044,-0.012807,0.021032,-0.999739
258449.224284,-0.12768696000000002,-0.21435831,-9.82152675,0.003041,0.000319,0.005363,-46.69957,153.903992,-170.39534,60.187678,24.830117,13.43801,23.776657,-1.0,-1.0,101.156853,1.189044,-0.012822,0.021047,-0.999578
258449.224284,-0.12768696000000002,-0.21435831,-9.82152675,0.003041,0.000319,0.005363,-46.69957,153.903992,-170.39534,60.187678,24.830117,13.43801,23.776657,-1.0,-1.0,101.156853,1.189044,-0.012822,0.021047,-0.999578
258449.264257,-0.12439080000000001,-0.2083644,-9.82646118,0.003648,6.3e-05,0.005284,-46.640488,153.778671,-170.737183,60.187678,24.830117,13.43801,23.776657,-1.0,-1.0,101.156853,1.189044,-0.01282,0.021059,-0.99944
258449.264257,-0.12439080000000001,-0.2083644,-9.82646118,0.003648,6.3e-05,0.005284,-46.640488,153.778671,-170.737183,60.187678,24.830117,13.43801,23.776657,-1.0,-1.0,101.156853,1.189044,-0.01282,0.021059,-0.99944
258449.304229,-0.12948219000000002,-0.21659499000000002,-9.83484873,0.004281,-5e-06,0.003244,-46.384918,154.259613,-170.489182,60.187678,24.830117,13.43801,23.776657,-1.0,-1.0,101.156853,1.189044,-0.01282,0.021077,-0.999513
258449.304229,-0.12948219000000002,-0.21659499000000002,-9.83484873,0.004281,-5e-06,0.003244,-46.384918,154.259613,-170.489182,60.187678,24.830117,13.43801,23.776657,-1.0,-1.0,101.156853,1.189044,-0.01282,0.021077,-0.999513
258449.344202,-0.12649014,-0.20192904000000003,-9.82032993,0.002891,0.001215,0.003176,-46.420273,153.897842,-170.19783,60.187678,24.830117,13.43801,23.776657,-1.0,-1.0,101.156853,1.189044,-0.012809,0.021078,-0.999797
258449.344202,-0.12649014,-0.20192904000000003,-9.82032993,0.002891,0.001215,0.003176,-46.420273,153.897842,-170.19783,60.187678,24.830117,13.43801,23.776657,-1.0,-1.0,101.156853,1.189044,-0.012809,0.021078,-0.999797
258449.364188,-0.13277835000000002,-0.21106215,-9.80565417,0.003063,0.000815,0.002332,-46.42067,153.953613,-170.385117,60.187678,24.830117,13.43801,23.776657,-1.0,-1.0,101.156853,1.189044,-0.012798,0.021077,-0.999866
258449.384174,-0.13097331,-0.20147778000000002,-9.823469130000001,0.00161,0.000438,0.003712,-46.633011,153.89328,-170.5121,60.187678,24.830117,13.43801,23.776657,-1.0,-1.0,101.156853,1.189044,-0.012802,0.021069,-0.999941
258449.424146,-0.13022775,-0.20597076000000003,-9.81239364,0.003199,-0.000602,0.003869,-46.550781,153.830154,-170.340378,60.187678,24.830117,13.43801,23.776657,-1.0,-1.0,101.156853,1.189044,-0.012821,0.021072,-0.999932
258449.424146,-0.13022775,-0.20597076000000003,-9.81239364,0.003199,-0.000602,0.003869,-46.550781,153.830154,-170.340378,60.187678,24.830117,13.43801,23.776657,-1.0,-1.0,101.156853,1.189044,-0.012821,0.021072,-0.999932
258449.424146,-0.13022775,-0.20597076000000003,-9.81239364,0.003199,-0.000602,0.003869,-46.550781,153.830154,-170.340378,60.187678,24.830117,13.43801,23.776657,-1.0,-1.0,101.156853,1.189044,-0.012821,0.021072,-0.999932
258449.464119,-0.12244842,-0.20387142,-9.82332198,0.003253,0.001015,0.004163,-46.615921,153.883942,-170.282486,60.187678,24.830117,13.43801,23.776657,-1.0,-1.0,101.156853,1.189044,-0.012819,0.021076,-0.999895
258449.504091,-0.12873663,-0.1998297,-9.82107549,0.003947,0.000589,0.004419,-46.508514,153.956085,-170.303116,60.187678,24.830117,13.43801,23.776657,-1.0,-1.0,101.156853,1.189044,-0.012825,0.02109,-1.000092
258449.524078,-0.12813822000000002,-0.21615354000000003,-9.81793629,0.003464,-0.000404,0.004083,-46.420258,154.071732,-170.44458,60.187678,24.830117,13.43801,23.776657,-1.0,-1.0,101.156853,1.189044,-0.012838,0.021096,-1.00025
258449.544065,-0.12798126,-0.20312586,-9.82377324,0.003984,0.000371,0.004855,-46.561874,153.984787,-170.244965,60.187678,24.830117,13.43801,23.776657,-1.0,-1.0,101.156853,1.189044,-0.012839,0.021097,-1.000271
258449.564051,-0.12903093000000002,-0.1963962,-9.819427410000001,0.00428,0.000113,0.003975,-46.408096,153.915543,-170.604172,60.187678,24.830117,13.43801,23.776657,-1.0,-1.0,101.156853,1.189044,-0.012832,0.021095,-1.000296
258449.584037,-0.11436498,-0.20417553000000002,-9.817033770000002,0.002184,-0.000844,0.003698,-46.53421,154.009674,-170.457993,60.187678,24.830117,13.43801,23.776657,-1.0,-1.0,101.156853,1.189044,-0.012825,0.021108,-1.000381
258449.604023,-0.12903093000000002,-0.20462679,-9.81389457,0.003623,-0.000633,0.004084,-46.494156,154.053009,-170.456573,60.187678,24.830117,13.43801,23.776657,-1.0,-1.0,101.156853,1.189044,-0.012827,0.021112,-1.000495
258449.624009,-0.12469491,-0.21255327,-9.81733788,0.00323,0.000154,0.00364,-46.683334,153.724518,-170.267746,60.187678,24.830117,13.43801,23.776657,-1.0,-1.0,101.156853,1.189044,-0.01283,0.021107,-1.000394
258449.643996,-0.11645451,-0.19683765,-9.812246490000001,0.002091,0.000717,0.005268,-46.711563,153.98555,-170.345047,60.187678,24.830117,13.43801,23.776657,-1.0,-1.0,101.156853,1.189044,-0.012844,0.021108,-1.000367
258449.663982,-0.12065319,-0.20761884,-9.82032993,0.003019,0.000158,0.005935,-46.480057,153.917511,-170.644562,60.187678,24.830117,13.43801,23.776657,-1.0,-1.0,101.156853,1.189044,-0.012855,0.021092,-1.000372
258449.683968,-0.13142457,-0.21180771,-9.81329616,0.003586,-0.000429,0.004769,-46.548767,153.821014,-170.674973,60.187678,24.830117,13.43801,23.776657,-1.0,-1.0,101.156853,1.189044,-0.012864,0.021088,-1.000315
258449.703954,-0.118701,-0.21046374,-9.81733788,0.00306,-0.000288,0.004042,-46.572296,153.642502,-170.824219,60.187678,24.830117,13.43801,23.776657,-1.0,-1.0,101.156853,1.189044,-0.012873,0.021103,-1.000135
258449.723941,-0.12319398000000001,-0.20656917,-9.82586277,0.003537,0.000562,0.004786,-46.440598,153.785645,-170.32045,60.187678,24.830117,13.43801,23.776657,-1.0,-1.0,101.156853,1.189044,-0.012881,0.021097,-1.000015
258449.723941,-0.12319398000000001,-0.20656917,-9.82586277,0.003537,0.000562,0.004786,-46.440598,153.785645,-170.32045,60.187678,24.830117,13.43801,23.776657,-1.0,-1.0,101.156853,1.189044,-0.012881,0.021097,-1.000015
258449.763913,-0.13457358,-0.20866851000000003,-9.80940159,0.003202,-0.000455,0.00411,-46.565491,153.836227,-170.62265,60.187678,24.830117,13.43801,23.776657,-1.0,-1.0,101.156853,1.189044,-0.012898,0.021111,-1.000052
258449.783899,-0.11884815000000001,-0.20283156000000002,-9.811500930000001,0.003727,-0.0012,0.004868,-46.367096,153.974823,-170.414429,60.187678,24.830117,13.43801,23.776657,-1.0,-1.0,101.156853,1.189044,-0.0129,0.021108,-1.000098
258449.803885,-0.12229146,-0.20402838,-9.807155100000001,0.002712,-0.000785,0.004225,-46.339676,153.860977,-170.713181,60.187678,24.830117,13.43801,23.776657,-1.0,-1.0,101.156853,1.189044,-0.012904,0.021117,-1.000116
258449.823872,-0.12080034,-0.21570228000000002,-9.81418887,0.002495,0.000179,0.005118,-46.366501,153.704285,-170.755417,60.187678,24.830117,13.43801,23.776657,-1.0,-1.0,101.156853,1.189044,-0.0129,0.021116,-1.000041
258449.863844,-0.11900511,-0.20387142,-9.8159841,0.003127,-0.000193,0.004905,-46.321655,154.012314,-170.38736,60.187678,24.830117,13.43801,23.776657,-1.0,-1.0,101.156853,1.189044,-0.012915,0.021124,-1.000055
258449.863844,-0.11900511,-0.20387142,-9.8159841,0.003127,-0.000193,0.004905,-46.321655,154.012314,-170.38736,60.187678,24.830117,13.43801,23.776657,-1.0,-1.0,101.156853,1.189044,-0.012915,0.021124,-1.000055
258449.903816,-0.12544047,-0.20417553000000002,-9.80925444,0.003352,0.000901,0.00297,-46.40239,153.863693,-170.374252,60.187678,24.830117,13.43801,23.776657,-1.0,-1.0,101.156853,1.189044,-0.012926,0.021107,-1.000216
258449.923803,-0.11645451,-0.19444401,-9.82062423,0.00289,-9.6e-05,0.002865,-46.491547,153.798111,-170.460297,60.187678,24.830117,13.43801,23.776657,-1.0,-1.0,101.156853,1.189044,-0.012935,0.021106,-1.000241
258449.943789,-0.12185001000000001,-0.20851155000000002,-9.82556847,0.003499,-0.001281,0.003924,-46.293732,153.99855,-170.384048,60.187678,24.830117,13.43801,23.776657,-1.0,-1.0,101.156853,1.189044,-0.012936,0.021112,-1.000322
258449.943789,-0.12185001000000001,-0.20851155000000002,-9.82556847,0.003499,-0.001281,0.003924,-46.293732,153.99855,-170.384048,60.187678,24.830117,13.43801,23.776657,-1.0,-1.0,101.156853,1.189044,-0.012936,0.021112,-1.000322
258449.983761,-0.12857967,-0.20402838,-9.82032993,0.003159,0.000139,0.004129,-46.696304,154.057281,-170.265457,60.187678,24.830117,13.43801,23.776657,-1.0,-1.0,101.156853,1.189044,-0.012934,0.02111,-1.000373
258449.983761,-0.12857967,-0.20402838,-9.82032993,0.003159,0.000139,0.004129,-46.696304,154.057281,-170.265457,60.187678,24.830117,13.43801,23.776657,-1.0,-1.0,101.156853,1.189044,-0.012934,0.02111,-1.000373
258450.023734,-0.12603888000000002,-0.21166056000000003,-9.820025820000001,0.003616,-9.5e-05,0.003843,-46.707291,153.623993,-170.44957,60.187678,24.830117,13.43801,23.776657,-1.0,-1.0,101.156853,1.189044,-0.012945,0.02111,-1.000298
258450.023734,-0.12603888000000002,-0.21166056000000003,-9.820025820000001,0.003616,-9.5e-05,0.003843,-46.707291,153.623993,-170.44957,60.187678,24.830117,13.43801,23.776657,-1.0,-1.0,101.156853,1.189044,-0.012945,0.02111,-1.000298
258450.04372,-0.12049623000000001,-0.20327301,-9.80445735,0.003102,0.000626,0.004828,-46.5634,154.035995,-170.388809,60.187678,24.830117,13.43801,23.776657,-1.0,-1.0,101.156853,1.189044,-0.012941,0.021114,-1.000153
258450.063706,-0.13187583,-0.20851155000000002,-9.81418887,0.003231,-0.000987,0.005141,-46.542603,153.694489,-170.311172,60.187678,24.830117,13.43801,23.776657,-1.0,-1.0,101.156853,1.189044,-0.012944,0.021128,-1.00016
258450.103679,-0.12783411,-0.20417553000000002,-9.808803180000002,0.002008,-0.000226,0.005345,-46.698059,153.703125,-170.232208,60.187678,24.830117,13.43801,23.776657,-1.0,-1.0,101.156548,1.212825,-0.012958,0.021155,-1.000018
258450.123665,-0.12319398000000001,-0.19998666,-9.82542132,0.002927,0.00028,0.004172,-46.834702,153.892563,-170.558365,60.187678,24.830117,13.43801,23.776657,-1.0,-1.0,101.156548,1.212825,-0.01297,0.021146,-0.999898
258450.143651,-0.12169305,-0.20522520000000002,-9.8068608,0.003334,0.000879,0.00369,-46.697281,153.782639,-170.614487,60.187678,24.830117,13.43801,23.776657,-1.0,-1.0,101.156548,1.212825,-0.01297,0.021144,-0.99975
258450.163637,-0.12738285000000002,-0.21031659,-9.816582510000002,0.003012,-0.001211,0.004032,-46.697281,153.782639,-170.614487,60.187678,24.830117,13.43801,23.776657,-1.0,-1.0,101.156548,1.212825,-0.012981,0.021149,-0.999569
258450.183623,-0.13682007,-0.20716758000000002,-9.819133110000001,0.00495,2e-06,0.003922,-46.595718,153.813522,-170.412582,60.187678,24.830117,13.43801,23.776657,-1.0,-1.0,101.156548,1.212825,-0.012982,0.021149,-0.999546
258450.20361,-0.13367106,-0.21704625,-9.82152675,0.004598,-0.000593,0.004645,-46.579056,153.815063,-170.576416,60.187678,24.830117,13.43801,23.776657,-1.0,-1.0,101.156548,1.212825,-0.012979,0.021153,-0.999478
258450.223596,-0.12558762,-0.19564083,-9.79203789,0.002745,-0.000588,0.004056,-46.703537,153.839737,-170.392868,60.187678,24.830117,13.43801,23.776657,-1.0,-1.0,101.156548,1.212825,-0.012987,0.02115,-0.99941
258450.243582,-0.12094749,-0.19594493999999998,-9.81194238,0.003551,0.001325,0.005007,-46.653122,153.759369,-170.514618,60.187678,24.830117,13.43801,23.776657,-1.0,-1.0,101.156548,1.212825,-0.012988,0.021155,-0.999327
258450.263568,-0.118701,-0.21031659,-9.82212516,0.004074,0.000272,0.003662,-46.821808,153.777863,-170.570999,60.187678,24.830117,13.43801,23.776657,-1.0,-1.0,101.156548,1.212825,-0.012995,0.021165,-0.999236
258450.283554,-0.12544047,-0.20087937,-9.81538569,0.004602,-4e-05,0.004242,-46.600677,153.888519,-170.384155,60.187678,24.830117,13.43801,23.776657,-1.0,-1.0,101.156548,1.212825,-0.012999,0.021174,-0.999219
258450.303541,-0.12259557,-0.20357712,-9.832307940000002,0.004559,0.000402,0.006291,-46.769699,153.899185,-170.608276,60.187678,24.830117,13.43801,23.776657,-1.0,-1.0,101.156548,1.212825,-0.013004,0.021194,-0.999217
258450.323527,-0.12469491,-0.21001248,-9.80162226,0.004201,-0.000666,0.003813,-46.714127,153.930359,-170.452682,60.187678,24.830117,13.43801,23.776657,-1.0,-1.0,101.156548,1.212825,-0.013007,0.02119,-0.999259
258450.323527,-0.12469491,-0.21001248,-9.80162226,0.004201,-0.000666,0.003813,-46.714127,153.930359,-170.452682,60.187678,24.830117,13.43801,23.776657,-1.0,-1.0,101.156548,1.212825,-0.013007,0.02119,-0.999259
258450.363499,-0.12244842,-0.20747169000000001,-9.822870720000001,0.003637,0.000847,0.002639,-46.420364,154.015762,-170.542877,60.187678,24.830117,13.43801,23.776657,-1.0,-1.0,101.156548,1.212825,-0.012995,0.021193,-0.999442
258450.383486,-0.14280417,-0.20537235,-9.817033770000002,0.003829,0.000747,0.002343,-46.600082,154.037964,-170.679169,60.187678,24.830117,13.43801,23.776657,-1.0,-1.0,101.156548,1.212825,-0.012978,0.021196,-0.999587
258450.403472,-0.11047041,-0.21899844000000002,-9.815238540000001,0.003423,0.001194,0.003101,-46.717194,153.985428,-170.64888,60.187678,24.830117,13.43801,23.776657,-1.0,-1.0,101.156548,1.212825,-0.01298,0.021201,-0.999636
258450.423458,-0.1272357,-0.18771435,-9.82332198,0.003613,0.000761,0.002898,-46.629593,154.058807,-170.631622,60.187678,24.830117,13.43801,23.776657,-1.0,-1.0,101.156548,1.212825,-0.012979,0.021196,-0.999696
258450.443444,-0.13262139,-0.21225897000000002,-9.82406754,0.003756,-0.000227,0.005151,-46.555466,154.138702,-170.789215,60.187678,24.830117,13.43801,23.776657,-1.0,-1.0,101.156548,1.212825,-0.012991,0.021197,-0.999815
258450.46343,-0.11810259,-0.20971818000000003,-9.81090252,0.003241,-0.00104,0.002757,-46.509094,154.002411,-170.600601,60.187678,24.830117,13.43801,23.776657,-1.0,-1.0,101.156548,1.212825,-0.013007,0.021189,-0.999875
258450.503403,-0.12393954,-0.20118348,-9.829610190000002,0.004147,0.000421,0.004352,-46.574234,153.991577,-170.855103,60.187678,24.830117,13.43801,23.776657,-1.0,-1.0,101.156548,1.212825,-0.013002,0.021179,-0.999941
258450.503403,-0.12393954,-0.20118348,-9.829610190000002,0.004147,0.000421,0.004352,-46.574234,153.991577,-170.855103,60.187678,24.830117,13.43801,23.776657,-1.0,-1.0,101.156548,1.212825,-0.013002,0.021179,-0.999941
258450.543375,-0.11855385,-0.19998666,-9.813590460000002,0.00355,-7.6e-05,0.005524,-46.56749,154.053223,-170.865158,60.187678,24.830117,13.43801,23.776657,-1.0,-1.0,101.156548,1.212825,-0.013015,0.021173,-1.000037
258450.543375,-0.11855385,-0.19998666,-9.813590460000002,0.00355,-7.6e-05,0.005524,-46.56749,154.053223,-170.865158,60.187678,24.830117,13.43801,23.776657,-1.0,-1.0,101.156548,1.212825,-0.013015,0.021173,-1.000037
258450.583348,-0.12603888000000002,-0.19893699,-9.813139200000002,0.002784,-0.001034,0.004404,-46.582108,153.868393,-170.787598,60.187678,24.830117,13.43801,23.776657,-1.0,-1.0,101.156548,1.212825,-0.013009,0.02117,-1.000051
258450.583348,-0.12603888000000002,-0.19893699,-9.813139200000002,0.002784,-0.001034,0.004404,-46.582108,153.868393,-170.787598,60.187678,24.830117,13.43801,23.776657,-1.0,-1.0,101.156548,1.212825,-0.013009,0.02117,-1.000051
258450.62332,-0.12484206,-0.20297871000000003,-9.81823059,0.002926,0.001457,0.00371,-46.546646,154.217102,-170.619736,60.187678,24.830117,13.43801,23.776657,-1.0,-1.0,101.156548,1.212825,-0.013012,0.021154,-1.000326
258450.62332,-0.12484206,-0.20297871000000003,-9.81823059,0.002926,0.001457,0.00371,-46.546646,154.217102,-170.619736,60.187678,24.830117,13.43801,23.776657,-1.0,-1.0,101.156548,1.212825,-0.013012,0.021154,-1.000326
258450.62332,-0.12484206,-0.20297871000000003,-9.81823059,0.002926,0.001457,0.00371,-46.546646,154.217102,-170.619736,60.187678,24.830117,13.43801,23.776657,-1.0,-1.0,101.156548,1.212825,-0.013012,0.021154,-1.000326
258450.663292,-0.11960352,-0.20283156000000002,-9.82856052,0.003166,-0.000404,0.004318,-46.455139,154.156906,-170.476212,60.187678,24.830117,13.43801,23.776657,-1.0,-1.0,101.156548,1.212825,-0.01302,0.021142,-1.000544
258450.703265,-0.11945637,-0.21824307,-9.82212516,0.003019,0.000912,0.003798,-46.3918,154.169586,-170.760544,60.187678,24.830117,13.43801,23.776657,-1.0,-1.0,101.156548,1.212825,-0.013024,0.021121,-1.00087
258450.723251,-0.12993345,-0.20776599,-9.81344331,0.002878,0.000971,0.00468,-46.510193,154.017883,-170.608276,60.187678,24.830117,13.43801,23.776657,-1.0,-1.0,101.156548,1.212825,-0.013019,0.021107,-1.001
258450.743237,-0.12888378,-0.20866851000000003,-9.82497006,0.003184,0.000414,0.005091,-46.520432,154.164978,-170.588104,60.187678,24.830117,13.43801,23.776657,-1.0,-1.0,101.156548,1.212825,-0.013019,0.021104,-1.001073
258450.763224,-0.11106882000000001,-0.21300453,-9.826912440000001,0.002968,1e-06,0.003936,-46.359085,154.020721,-170.687881,60.187678,24.830117,13.43801,23.776657,-1.0,-1.0,101.156548,1.212825,-0.013033,0.021088,-1.001188
258450.78321,-0.12094749,-0.19399275000000002,-9.823469130000001,0.002866,0.001323,0.004311,-46.645676,154.123276,-170.70874,60.187678,24.830117,13.43801,23.776657,-1.0,-1.0,101.156548,1.212825,-0.013039,0.021088,-1.00128
258450.803196,-0.12933504,-0.19743606000000002,-9.81239364,0.003419,0.000379,0.005216,-46.912643,154.249847,-170.669876,60.187678,24.830117,13.43801,23.776657,-1.0,-1.0,101.156548,1.212825,-0.013035,0.021093,-1.001369
258450.823182,-0.12439080000000001,-0.20716758000000002,-9.81718092,0.004378,0.000526,0.004718,-46.683228,154.192856,-170.743561,60.187678,24.830117,13.43801,23.776657,-1.0,-1.0,101.156548,1.212825,-0.013026,0.021087,-1.00146
258450.823182,-0.12439080000000001,-0.20716758000000002,-9.81718092,0.004378,0.000526,0.004718,-46.683228,154.192856,-170.743561,60.187678,24.830117,13.43801,23.776657,-1.0,-1.0,101.156548,1.212825,-0.013026,0.021087,-1.00146
258450.863155,-0.12529332,-0.20597076000000003,-9.80655669,0.003501,0.001545,0.005465,-46.667969,154.001694,-170.479202,60.187678,24.830117,13.43801,23.776657,-1.0,-1.0,101.156548,1.212825,-0.013028,0.021064,-1.001553
258450.883141,-0.12813822000000002,-0.20133063,-9.8216739,0.001585,-0.00024,0.004163,-46.540176,154.041748,-170.492401,60.187678,24.830117,13.43801,23.776657,-1.0,-1.0,101.156548,1.212825,-0.013029,0.021053,-1.001604
258450.903127,-0.11226564,-0.19683765,-9.820025820000001,0.002885,-0.000706,0.00333,-46.70224,154.134781,-170.470459,60.187678,24.830117,13.43801,23.776657,-1.0,-1.0,101.156548,1.212825,-0.013041,0.021044,-1.001682
258450.923113,-0.12379239,-0.20058507,-9.82631403,0.003699,0.000384,0.005123,-46.620361,154.041458,-170.731094,60.187678,24.830117,13.43801,23.776657,-1.0,-1.0,101.156548,1.212825,-0.013043,0.021034,-1.001733
258450.923113,-0.12379239,-0.20058507,-9.82631403,0.003699,0.000384,0.005123,-46.620361,154.041458,-170.731094,60.187678,24.830117,13.43801,23.776657,-1.0,-1.0,101.156548,1.212825,-0.013043,0.021034,-1.001733
258450.963086,-0.12080034,-0.21271023000000003,-9.81389457,0.004205,-0.000183,0.002626,-46.692078,153.90004,-170.949463,60.187678,24.830117,13.43801,23.776657,-1.0,-1.0,101.156548,1.212825,-0.013054,0.021022,-1.00161
258450.983072,-0.13053186,-0.20866851000000003,-9.811343970000001,0.004168,-0.001144,0.004888,-46.743027,153.991806,-170.678711,60.187678,24.830117,13.43801,23.776657,-1.0,-1.0,101.156548,1.212825,-0.013068,0.021027,-1.001593
258451.003058,-0.13546629000000002,-0.19578798,-9.827069400000001,0.0026,0.000341,0.004037,-46.437012,153.974487,-170.657959,60.187678,24.830117,13.43801,23.776657,-1.0,-1.0,101.156548,1.212825,-0.013063,0.021019,-1.001687
258451.023044,-0.12678444,-0.19145196,-9.822272309999999,0.00322,0.00057,0.005528,-46.51857,153.808716,-170.688034,60.187678,24.830117,13.43801,23.776657,-1.0,-1.0,101.156548,1.212825,-0.013043,0.02101,-1.001631
258451.063017,-0.11256975000000001,-0.1907064,-9.818829,0.003884,0.000321,0.003982,-46.441605,153.867081,-170.517303,60.187678,24.830117,13.43801,23.776657,-1.0,-1.0,101.156548,1.212825,-0.013034,0.02101,-1.001658
258451.063017,-0.11256975000000001,-0.1907064,-9.818829,0.003884,0.000321,0.003982,-46.441605,153.867081,-170.517303,60.187678,24.830117,13.43801,23.776657,-1.0,-1.0,101.156548,1.212825,-0.013034,0.02101,-1.001658
258451.102989,-0.13082616000000002,-0.20791314000000002,-9.801171,0.002797,1.5e-05,0.006671,-46.287872,154.261368,-170.66835,60.187678,24.830117,13.43801,23.776657,-1.0,-1.0,101.156548,1.212825,-0.013051,0.020999,-1.0018
258451.102989,-0.13082616000000002,-0.20791314000000002,-9.801171,0.002797,1.5e-05,0.006671,-46.287872,154.261368,-170.66835,60.187678,24.830117,13.43801,23.776657,-1.0,-1.0,101.156548,1.212825,-0.013051,0.020999,-1.0018
258451.142961,-0.12020193000000001,-0.21135645000000003,-9.82601973,0.00134,-0.00017,0.003879,-46.459656,154.239578,-170.899765,60.187678,24.830117,13.43801,23.776657,-1.0,-1.0,101.156548,1.212825,-0.013054,0.020977,-1.00215
258451.142961,-0.12020193000000001,-0.21135645000000003,-9.82601973,0.00134,-0.00017,0.003879,-46.459656,154.239578,-170.899765,60.187678,24.830117,13.43801,23.776657,-1.0,-1.0,101.156548,1.212825,-0.013054,0.020977,-1.00215
258451.182934,-0.12439080000000001,-0.20492109000000003,-9.80071974,0.002306,-0.000549,0.003346,-46.386658,154.133011,-171.00473,60.187678,24.830117,13.43801,23.776657,-1.0,-1.0,101.156059,1.255102,-0.013064,0.020979,-1.002486
258451.182934,-0.12439080000000001,-0.20492109000000003,-9.80071974,0.002306,-0.000549,0.003346,-46.386658,154.133011,-171.00473,60.187678,24.830117,13.43801,23.776657,-1.0,-1.0,101.156059,1.255102,-0.013064,0.020979,-1.002486
258451.222906,-0.13157172,-0.20402838,-9.81987867,0.003882,0.00029,0.003526,-46.577423,154.282303,-170.848618,60.187678,24.830117,13.43801,23.776657,-1.0,-1.0,101.156059,1.255102,-0.013075,0.020978,-1.002932
258451.222906,-0.13157172,-0.20402838,-9.81987867,0.003882,0.00029,0.003526,-46.577423,154.282303,-170.848618,60.187678,24.830117,13.43801,23.776657,-1.0,-1.0,101.156059,1.255102,-0.013075,0.020978,-1.002932
258451.242893,-0.11975067000000002,-0.19833858000000001,-9.808803180000002,0.003654,-0.000326,0.006085,-46.434174,154.196136,-170.770432,60.187678,24.830117,13.43801,23.776657,-1.0,-1.0,101.156059,1.255102,-0.013082,0.02098,-1.003041
258451.262879,-0.12049623000000001,-0.21525102000000002,-9.80805762,0.003033,-0.000201,0.003396,-46.373001,154.268402,-170.643051,60.187678,24.830117,13.43801,23.776657,-1.0,-1.0,101.156059,1.255102,-0.013079,0.020981,-1.003278
258451.302851,-0.12888378,-0.21106215,-9.81494424,0.000773,-0.001249,0.003976,-46.379333,154.143692,-170.805862,60.187678,24.830117,13.43801,23.776657,-1.0,-1.0,101.156059,1.255102,-0.013091,0.020965,-1.003455
258451.322837,-0.11601306,-0.20507805,-9.82406754,0.002608,0.000883,0.004115,-46.586685,153.921112,-170.728943,60.187678,24.830117,13.43801,23.776657,-1.0,-1.0,101.156059,1.255102,-0.013098,0.020971,-1.003548
258451.342824,-0.11316816,-0.20312586,-9.81793629,0.002056,-0.000574,0.004489,-46.560394,154.196625,-171.205856,60.187678,24.830117,13.43801,23.776657,-1.0,-1.0,101.156059,1.255102,-0.013113,0.020966,-1.003625
258451.36281,-0.1158561,-0.19609209,-9.810304109999999,0.003269,-0.000887,0.004131,-46.54187,154.117325,-171.047729,60.187678,24.830117,13.43801,23.776657,-1.0,-1.0,101.156059,1.255102,-0.013108,0.020976,-1.00369
258451.382796,-0.13981212,-0.20103633,-9.80895033,0.004265,0.000342,0.004775,-46.77298,154.189819,-170.485504,60.187678,24.830117,13.43801,23.776657,-1.0,-1.0,101.156059,1.255102,-0.013106,0.020971,-1.003749
258451.402782,-0.12469491,-0.20207619000000002,-9.81898596,0.003457,-0.000504,0.003639,-46.72319,153.986542,-170.629822,60.187678,24.830117,13.43801,23.776657,-1.0,-1.0,101.156059,1.255102,-0.013102,0.020965,-1.003767
258451.422768,-0.11106882000000001,-0.20073222000000002,-9.811795230000001,0.003511,-0.000648,0.003387,-46.575775,154.204529,-170.72049,60.187678,24.830117,13.43801,23.776657,-1.0,-1.0,101.156059,1.255102,-0.01311,0.02097,-1.003717
258451.442755,-0.12649014,-0.21330864,-9.80086689,0.003151,7.3e-05,0.004816,-46.465698,154.168228,-170.867249,60.187678,24.830117,13.43801,23.776657,-1.0,-1.0,101.156059,1.255102,-0.013111,0.020968,-1.003733
258451.462741,-0.13232709,-0.19264878,-9.82152675,0.004197,0.000536,0.002627,-46.609482,154.110092,-170.289413,60.187678,24.830117,13.43801,23.776657,-1.0,-1.0,101.156059,1.255102,-0.013109,0.020964,-1.003856
258451.482727,-0.11975067000000002,-0.19369845,-9.80626239,0.004053,0.000651,0.003667,-46.62677,153.917587,-170.528519,60.187678,24.830117,13.43801,23.776657,-1.0,-1.0,101.156059,1.255102,-0.013116,0.020967,-1.003829
258451.502713,-0.12259557,-0.19564083,-9.813139200000002,0.003126,-0.001426,0.004452,-46.576004,154.054001,-170.987671,60.187678,24.830117,13.43801,23.776657,-1.0,-1.0,101.156059,1.255102,-0.013124,0.020975,-1.00373
258451.522698,-0.12828537,-0.21211182,-9.80476146,0.002868,-0.000323,0.00368,-46.616638,153.966385,-170.698151,60.187678,24.830117,13.43801,23.776657,-1.0,-1.0,101.156059,1.255102,-0.013135,0.02096,-1.003738
258451.542685,-0.14160735,-0.19743606000000002,-9.8213796,0.002662,0.000583,0.003489,-46.697433,154.059586,-170.29245,60.187678,24.830117,13.43801,23.776657,-1.0,-1.0,101.156059,1.255102,-0.013135,0.020968,-1.003751
258451.562671,-0.11855385,-0.19774017000000002,-9.8043102,0.00312,-7e-06,0.005345,-46.697433,154.059586,-170.29245,60.187678,24.830117,13.43801,23.776657,-1.0,-1.0,101.156059,1.255102,-0.013138,0.020971,-1.003712
258451.582657,-0.12544047,-0.21794877000000001,-9.808351920000002,0.004564,-0.001829,0.004558,-46.727905,154.129211,-170.479126,60.187678,24.830117,13.43801,23.776657,-1.0,-1.0,101.156059,1.255102,-0.01315,0.020976,-1.003752
258451.602643,-0.1240965,-0.20477394000000002,-9.82676529,0.003279,0.000137,0.005087,-46.544754,154.025253,-170.606461,60.187678,24.830117,13.43801,23.776657,-1.0,-1.0,101.156059,1.255102,-0.013145,0.020978,-1.00376
258451.622629,-0.1300806,-0.20118348,-9.81509139,0.002553,0.000797,0.004463,-46.496521,154.031784,-170.586838,60.187678,24.830117,13.43801,23.776657,-1.0,-1.0,101.156059,1.255102,-0.013139,0.02099,-1.003786
258451.642616,-0.12603888000000002,-0.20417553000000002,-9.8216739,0.003218,-0.000225,0.003877,-46.516418,154.057846,-170.464005,60.187678,24.830117,13.43801,23.776657,-1.0,-1.0,101.156059,1.255102,-0.013139,0.020996,-1.003869
258451.662602,-0.11286405000000001,-0.21630069,-9.82721655,0.003594,-0.001188,0.003755,-46.606094,154.078033,-170.688995,60.187678,24.830117,13.43801,23.776657,-1.0,-1.0,101.156059,1.255102,-0.013146,0.021001,-1.003919
258451.682588,-0.12288987000000001,-0.21061089,-9.82212516,0.003559,-0.000473,0.002573,-46.756317,154.013412,-171.205551,60.187678,24.830117,13.43801,23.776657,-1.0,-1.0,101.156059,1.255102,-0.013145,0.021019,-1.003945
258451.702574,-0.12065319,-0.20582361000000002,-9.82107549,0.003479,-0.00019,0.005029,-46.580109,153.797318,-170.866058,60.187678,24.830117,13.43801,23.776657,-1.0,-1.0,101.156059,1.255102,-0.013149,0.021022,-1.003938
258451.742547,-0.12469491,-0.20372427,-9.82332198,0.005106,0.001093,0.005639,-46.610352,153.913147,-170.665009,60.187678,24.830117,13.43801,23.776657,-1.0,-1.0,101.156059,1.255102,-0.013148,0.021038,-1.003841
258451.742547,-0.12469491,-0.20372427,-9.82332198,0.005106,0.001093,0.005639,-46.610352,153.913147,-170.665009,60.187678,24.830117,13.43801,23.776657,-1.0,-1.0,101.156059,1.255102,-0.013148,0.021038,-1.003841
258451.782519,-0.12558762,-0.21001248,-9.817033770000002,0.003551,-0.001182,0.004659,-46.648239,154.133057,-170.753693,60.187678,24.830117,13.43801,23.776657,-1.0,-1.0,101.156059,1.255102,-0.013142,0.021039,-1.00392
258451.782519,-0.12558762,-0.21001248,-9.817033770000002,0.003551,-0.001182,0.004659,-46.648239,154.133057,-170.753693,60.187678,24.830117,13.43801,23.776657,-1.0,-1.0,101.156059,1.255102,-0.013142,0.021039,-1.00392
258451.782519,-0.12558762,-0.21001248,-9.817033770000002,0.003551,-0.001182,0.004659,-46.648239,154.133057,-170.753693,60.187678,24.830117,13.43801,23.776657,-1.0,-1.0,101.156059,1.255102,-0.013142,0.021039,-1.00392
258451.782519,-0.12558762,-0.21001248,-9.817033770000002,0.003551,-0.001182,0.004659,-46.648239,154.133057,-170.753693,60.187678,24.830117,13.43801,23.776657,-1.0,-1.0,101.156059,1.255102,-0.013142,0.021039,-1.00392
258451.782519,-0.12558762,-0.21001248,-9.817033770000002,0.003551,-0.001182,0.004659,-46.648239,154.133057,-170.753693,60.187678,24.830117,13.43801,23.776657,-1.0,-1.0,101.156059,1.255102,-0.013142,0.021039,-1.00392
258451.782519,-0.12558762,-0.21001248,-9.817033770000002,0.003551,-0.001182,0.004659,-46.648239,154.133057,-170.753693,60.187678,24.830117,13.43801,23.776657,-1.0,-1.0,101.156059,1.255102,-0.013142,0.021039,-1.00392
258451.782519,-0.12558762,-0.21001248,-9.817033770000002,0.003551,-0.001182,0.004659,-46.648239,154.133057,-170.753693,60.187678,24.830117,13.43801,23.776657,-1.0,-1.0,101.156059,1.255102,-0.013142,0.021039,-1.00392
258451.782519,-0.12558762,-0.21001248,-9.817033770000002,0.003551,-0.001182,0.004659,-46.648239,154.133057,-170.753693,60.187678,24.830117,13.43801,23.776657,-1.0,-1.0,101.156059,1.255102,-0.013142,0.021039,-1.00392
258451.782519,-0.12558762,-0.21001248,-9.817033770000002,0.003551,-0.001182,0.004659,-46.648239,154.133057,-170.753693,60.187678,24.830117,13.43801,23.776657,-1.0,-1.0,101.156059,1.255102,-0.013142,0.021039,-1.00392
258451.862464,-0.11884815000000001,-0.20432268,-9.80445735,0.001912,-0.000422,0.00427,-46.667389,154.109314,-171.102493,60.187678,24.830117,13.43801,23.776657,-1.0,-1.0,101.156059,1.255102,-0.013109,0.021027,-1.003901
258451.922423,-0.11765133000000001,-0.20087937,-9.81583695,0.005039,-0.001751,0.004776,-46.697128,153.969833,-170.881119,60.187678,24.830117,13.43801,23.776657,-1.0,-1.0,101.156059,1.255102,-0.013103,0.021045,-1.003771
258452.002367,-0.13277835000000002,-0.21211182,-9.80925444,0.004227,0.001654,0.005006,-46.588943,153.934158,-170.903351,60.187648,24.830094,12.914475,16.891153,-1.0,-1.0,101.156059,1.255102,-0.013083,0.021039,-1.003215
258452.022354,-0.13082616000000002,-0.20567646,-9.81269775,0.0021,0.001069,0.003713,-46.670639,153.974625,-171.229172,60.187648,24.830094,12.914475,16.891153,-1.0,-1.0,101.156059,1.255102,-0.013057,0.02103,-1.003126
258452.04234,-0.12708855,-0.19893699,-9.819731520000001,0.003796,-0.000342,0.00453,-46.858246,153.78479,-171.125397,60.187648,24.830094,12.914475,16.891153,-1.0,-1.0,101.156059,1.255102,-0.013067,0.021028,-1.002946
258452.062326,-0.12977649,-0.21720321,-9.81763218,0.003243,-0.000816,0.006124,-46.725296,153.972672,-171.221298,60.187648,24.830094,12.914475,16.891153,-1.0,-1.0,101.156059,1.255102,-0.013061,0.021024,-1.002874
258452.082312,-0.1212516,-0.20073222000000002,-9.82257642,0.00519,0.000511,0.00308,-46.762863,153.918808,-170.860626,60.187648,24.830094,12.914475,16.891153,-1.0,-1.0,101.156059,1.255102,-0.013055,0.021029,-1.002776
258452.102298,-0.12439080000000001,-0.1995354,-9.811049670000001,0.003382,-0.000109,0.003359,-46.861816,153.985779,-171.009598,60.187648,24.830094,12.914475,16.891153,-1.0,-1.0,101.156059,1.255102,-0.013052,0.021028,-1.002752
258452.122285,-0.12529332,-0.21120930000000002,-9.8245188,0.002648,0.001323,0.004168,-46.721069,153.944717,-171.13147,60.187648,24.830094,12.914475,16.891153,-1.0,-1.0,101.156059,1.255102,-0.013048,0.021015,-1.002656
258452.122285,-0.12529332,-0.21120930000000002,-9.8245188,0.002648,0.001323,0.004168,-46.721069,153.944717,-171.13147,60.187648,24.830094,12.914475,16.891153,-1.0,-1.0,101.156059,1.255102,-0.013048,0.021015,-1.002656
258452.162257,-0.12393954,-0.19968255000000001,-9.80535987,0.003152,-0.00036,0.004282,-46.652786,154.149414,-170.889832,60.187648,24.830094,12.914475,16.891153,-1.0,-1.0,101.156059,1.255102,-0.013071,0.02101,-1.002366
258452.182243,-0.1212516,-0.21316148999999998,-9.819584370000001,0.004147,0.001419,0.0046,-46.510788,153.924438,-170.951736,60.187648,24.830094,12.914475,16.891153,-1.0,-1.0,101.156059,1.255102,-0.01306,0.021011,-1.002427
258452.202229,-0.12244842,-0.21929274,-9.8128449,0.003884,0.000204,0.004599,-46.646683,153.923508,-170.733887,60.187648,24.830094,12.914475,16.891153,-1.0,-1.0,101.156059,1.255102,-0.013058,0.021009,-1.00242
258452.222216,-0.11675862,-0.20342997,-9.816582510000002,0.003549,-0.000388,0.004256,-46.716141,153.967804,-170.842819,60.187648,24.830094,12.914475,16.891153,-1.0,-1.0,101.156059,1.255102,-0.013054,0.021006,-1.002347
258452.242202,-0.12154590000000001,-0.2140542,-9.81434583,0.002555,-0.001602,0.004948,-46.743088,153.918045,-171.004486,60.187648,24.830094,12.914475,16.891153,-1.0,-1.0,101.156059,1.255102,-0.013066,0.020986,-1.002282
258452.262188,-0.11735703,-0.21106215,-9.813590460000002,0.002842,-0.001776,0.005152,-46.576157,154.047806,-171.051956,60.187648,24.830094,12.914475,16.891153,-1.0,-1.0,101.155739,1.281526,-0.013069,0.02098,-1.002247
258452.282174,-0.12589173,-0.19803447000000002,-9.815238540000001,0.003767,-0.000989,0.005286,-46.576157,154.047806,-171.051956,60.187648,24.830094,12.914475,16.891153,-1.0,-1.0,101.155739,1.281526,-0.013066,0.020978,-1.002312
258452.302161,-0.12828537,-0.20312586,-9.81928026,0.002838,-0.000185,0.004585,-46.711975,153.981247,-170.876038,60.187648,24.830094,12.914475,16.891153,-1.0,-1.0,101.155739,1.281526,-0.013051,0.020981,-1.002387
258452.322147,-0.12917808,-0.20551950000000002,-9.828266220000001,0.003598,-0.001489,0.004092,-46.56073,154.040131,-170.82045,60.187648,24.830094,12.914475,16.891153,-1.0,-1.0,101.155739,1.281526,-0.013047,0.020987,-1.002441
258452.342133,-0.12948219000000002,-0.2137599,-9.81389457,0.00206,-0.000871,0.004583,-46.541672,153.830246,-171.02713,60.187648,24.830094,12.914475,16.891153,-1.0,-1.0,101.155739,1.281526,-0.013037,0.020978,-1.002463
258452.362119,-0.12753,-0.19235448000000002,-9.82721655,0.003375,-0.000243,0.003701,-46.430374,153.935471,-170.836594,60.187648,24.830094,12.914475,16.891153,-1.0,-1.0,101.155739,1.281526,-0.013039,0.020977,-1.00249
258452.402092,-0.13337676,-0.19654335,-9.80535987,0.003662,-0.000882,0.005769,-46.517929,154.085632,-170.822144,60.187648,24.830094,12.914475,16.891153,-1.0,-1.0,101.155739,1.281526,-0.013035,0.020947,-1.002623
258452.422078,-0.12244842,-0.19788732,-9.823469130000001,0.003171,0.000106,0.003412,-46.719589,153.975708,-171.09668,60.187648,24.830094,12.914475,16.891153,-1.0,-1.0,101.155739,1.281526,-0.013039,0.020942,-1.002619
258452.422078,-0.12244842,-0.19788732,-9.823469130000001,0.003171,0.000106,0.003412,-46.719589,153.975708,-171.09668,60.187648,24.830094,12.914475,16.891153,-1.0,-1.0,101.155739,1.281526,-0.013039,0.020942,-1.002619
258452.422078,-0.12244842,-0.19788732,-9.823469130000001,0.003171,0.000106,0.003412,-46.719589,153.975708,-171.09668,60.187648,24.830094,12.914475,16.891153,-1.0,-1.0,101.155739,1.281526,-0.013039,0.020942,-1.002619
258452.482036,-0.12334113000000002,-0.20477394000000002,-9.81373761,0.003399,0.000339,0.005501,-46.480118,154.168396,-170.956863,60.187648,24.830094,12.914475,16.891153,-1.0,-1.0,101.155739,1.281526,-0.013025,0.02092,-1.002756
258452.502023,-0.13157172,-0.21899844000000002,-9.823027680000001,0.004687,0.000488,0.00424,-46.366531,154.011414,-170.845459,60.187648,24.830094,12.914475,16.891153,-1.0,-1.0,101.155739,1.281526,-0.013003,0.020915,-1.00291
258452.52201,-0.10687995,-0.20507805,-9.807155100000001,0.002646,0.001347,0.00329,-46.357376,153.987015,-170.937012,60.187648,24.830094,12.914475,16.891153,-1.0,-1.0,101.155739,1.281526,-0.012989,0.020905,-1.002984
258452.541996,-0.12484206,-0.20387142,-9.81538569,0.003962,-0.00183,0.004843,-46.285934,154.061874,-170.821594,60.187648,24.830094,12.914475,16.891153,-1.0,-1.0,101.155739,1.281526,-0.012985,0.020901,-1.003123
258452.561982,-0.12185001000000001,-0.20611791,-9.80610543,0.003761,-0.000203,0.004116,-46.401611,154.011047,-170.977036,60.187648,24.830094,12.914475,16.891153,-1.0,-1.0,101.155739,1.281526,-0.012987,0.020899,-1.003228
258452.581968,-0.1212516,-0.20207619000000002,-9.811343970000001,0.002813,0.000934,0.002601,-46.552567,154.128448,-170.832779,60.187648,24.830094,12.914475,16.891153,-1.0,-1.0,101.155739,1.281526,-0.01297,0.020897,-1.003292
258452.601955,-0.13172868000000001,-0.20582361000000002,-9.81329616,0.003594,0.000148,0.004438,-46.557373,153.96579,-170.887878,60.187648,24.830094,12.914475,16.891153,-1.0,-1.0,101.155739,1.281526,-0.012972,0.020907,-1.003252
258452.621941,-0.12768696000000002,-0.20656917,-9.81868185,0.00336,-0.000695,0.004507,-46.664062,153.969315,-170.887741,60.187648,24.830094,12.914475,16.891153,-1.0,-1.0,101.155739,1.281526,-0.012968,0.020906,-1.003226
258452.641927,-0.11406087000000001,-0.21345579,-9.811795230000001,0.003593,-0.000699,0.003979,-46.610184,153.786697,-170.834259,60.187648,24.830094,12.914475,16.891153,-1.0,-1.0,101.155739,1.281526,-0.012964,0.020895,-1.003146
258452.661913,-0.13067901,-0.20926692000000002,-9.81389457,0.003272,-0.000287,0.003108,-46.57933,153.909515,-170.767441,60.187648,24.830094,12.914475,16.891153,-1.0,-1.0,101.155739,1.281526,-0.012958,0.020895,-1.003044
258452.6819,-0.11256975000000001,-0.20896281000000003,-9.816582510000002,0.003328,0.000596,0.005057,-46.435013,153.979294,-170.771881,60.187648,24.830094,12.914475,16.891153,-1.0,-1.0,101.155739,1.281526,-0.012959,0.020886,-1.002979
258452.701886,-0.13486788,-0.21061089,-9.818377739999999,0.003301,0.001196,0.002965,-46.38414,154.112762,-170.666122,60.187648,24.830094,12.914475,16.891153,-1.0,-1.0,101.155739,1.281526,-0.012953,0.020881,-1.003036
258452.721872,-0.11570895,-0.18726309,-9.816582510000002,0.004035,0.000875,0.003783,-46.56459,153.976624,-170.893295,60.187648,24.830094,12.914475,16.891153,-1.0,-1.0,101.155739,1.281526,-0.012935,0.020871,-1.003036
258452.741858,-0.12304683000000001,-0.1935513,-9.80581113,0.001838,-0.001255,0.004883,-46.403748,154.05925,-170.593094,60.187648,24.830094,12.914475,16.891153,-1.0,-1.0,101.155739,1.281526,-0.012927,0.020861,-1.00305
258452.761844,-0.12319398000000001,-0.21255327,-9.813590460000002,0.003263,0.000241,0.003618,-46.438538,153.874329,-171.123291,60.187648,24.830094,12.914475,16.891153,-1.0,-1.0,101.155739,1.281526,-0.012919,0.020852,-1.002992
258452.781831,-0.12424365,-0.20283156000000002,-9.82526436,0.002048,-0.000526,0.003524,-46.581161,153.840866,-170.778763,60.187648,24.830094,12.914475,16.891153,-1.0,-1.0,101.155739,1.281526,-0.01292,0.020846,-1.002859
258452.801817,-0.12529332,-0.21255327,-9.81014715,0.003577,-0.000554,0.003077,-46.602951,153.965561,-170.769669,60.187648,24.830094,12.914475,16.891153,-1.0,-1.0,101.155739,1.281526,-0.01292,0.020842,-1.00279
258452.821803,-0.13202298,-0.20986533,-9.81434583,0.003289,-0.000564,0.003165,-46.501602,153.940491,-170.767212,60.187648,24.830094,12.914475,16.891153,-1.0,-1.0,101.155739,1.281526,-0.012918,0.020827,-1.002739
258452.841789,-0.13367106,-0.19759302,-9.82241946,0.004208,0.000208,0.003766,-46.603165,153.931351,-170.933701,60.187648,24.830094,12.914475,16.891153,-1.0,-1.0,101.155739,1.281526,-0.012921,0.020831,-1.002688
258452.861775,-0.13397517,-0.20687328,-9.81014715,0.003656,-8e-06,0.003957,-46.501083,154.039932,-170.588913,60.187648,24.830094,12.914475,16.891153,-1.0,-1.0,101.155739,1.281526,-0.012921,0.020831,-1.002651
258452.881762,-0.12798126,-0.20582361000000002,-9.810304109999999,0.003288,0.000957,0.004641,-46.53157,154.001907,-170.780365,60.187648,24.830094,12.914475,16.891153,-1.0,-1.0,101.155739,1.281526,-0.012914,0.020822,-1.002681
258452.901748,-0.13097331,-0.20642202000000004,-9.8245188,0.003827,0.000336,0.00328,-46.488754,154.053848,-170.441025,60.187648,24.830094,12.914475,16.891153,-1.0,-1.0,101.155739,1.281526,-0.012911,0.02083,-1.002695
258452.921734,-0.12753,-0.19743606000000002,-9.828707670000002,0.002464,0.000483,0.002544,-46.652618,153.93718,-170.8862,60.187648,24.830094,12.914475,16.891153,-1.0,-1.0,101.155739,1.281526,-0.012914,0.020824,-1.002694
258452.94172,-0.12453795000000001,-0.20492109000000003,-9.81164808,0.001483,0.000736,0.003578,-46.707123,153.919144,-170.706116,60.187648,24.830094,12.914475,16.891153,-1.0,-1.0,101.155739,1.281526,-0.012913,0.020807,-1.002625
258452.961707,-0.11900511,-0.19938825000000002,-9.824371650000002,0.002256,0.001128,0.004384,-46.718033,153.914917,-170.47464,60.187648,24.830094,12.914475,16.891153,-1.0,-1.0,101.155739,1.281526,-0.012899,0.020808,-1.00252
258452.981693,-0.11166723,-0.20312586,-9.81209934,0.003436,0.000225,0.003251,-46.718033,153.914917,-170.47464,60.187648,24.830094,12.914475,16.891153,-1.0,-1.0,101.155739,1.281526,-0.012899,0.020793,-1.00245
258453.001679,-0.12304683000000001,-0.19743606000000002,-9.80640954,0.002182,-0.000153,0.003804,-46.487167,153.984802,-170.775879,60.187648,24.830094,12.914475,16.891153,-1.0,-1.0,101.155739,1.281526,-0.012891,0.020799,-1.00246
258453.021665,-0.12288987000000001,-0.21225897000000002,-9.81538569,0.002575,0.000674,0.003822,-46.611893,153.85408,-170.815231,60.187648,24.830094,12.914475,16.891153,-1.0,-1.0,101.155739,1.281526,-0.012885,0.020802,-1.002362
258453.041651,-0.11780829000000001,-0.20627487000000003,-9.82946304,0.003117,0.000409,0.002992,-46.667526,153.72171,-170.755707,60.187648,24.830094,12.914475,16.891153,-1.0,-1.0,101.155739,1.281526,-0.012885,0.0208,-1.002201
258453.061638,-0.12993345,-0.20791314000000002,-9.81239364,0.004123,-0.000141,0.003762,-46.745041,153.733231,-170.708649,60.187648,24.830094,12.914475,16.891153,-1.0,-1.0,101.155739,1.281526,-0.01288,0.020805,-1.002011
258453.081624,-0.11211849,-0.20133063,-9.80626239,0.003344,-0.000131,0.005305,-46.845657,153.670639,-171.226883,60.187648,24.830094,12.914475,16.891153,-1.0,-1.0,101.155739,1.281526,-0.012875,0.020794,-1.00185
258453.121596,-0.12185001000000001,-0.21271023000000003,-9.82586277,0.00204,-0.000635,0.003417,-46.683365,153.799072,-170.605682,60.187648,24.830094,12.914475,16.891153,-1.0,-1.0,101.155739,1.281526,-0.012883,0.020784,-1.00174
258453.141582,-0.12903093000000002,-0.19923129,-9.81718092,0.004567,2.6e-05,0.003182,-46.753372,153.792969,-170.553635,60.187648,24.830094,12.914475,16.891153,-1.0,-1.0,101.155739,1.281526,-0.012882,0.020779,-1.001608
258453.161569,-0.11975067000000002,-0.20387142,-9.80865603,0.00292,-7.5e-05,0.00515,-46.672348,153.984787,-170.784882,60.187648,24.830094,12.914475,16.891153,-1.0,-1.0,101.155739,1.281526,-0.012882,0.020768,-1.001572
258453.161569,-0.11975067000000002,-0.20387142,-9.80865603,0.00292,-7.5e-05,0.00515,-46.672348,153.984787,-170.784882,60.187648,24.830094,12.914475,16.891153,-1.0,-1.0,101.155739,1.281526,-0.012882,0.020768,-1.001572
258453.201541,-0.12214431,-0.20731473,-9.82542132,0.003876,-0.000774,0.003457,-46.444855,153.978958,-171.096909,60.187648,24.830094,12.914475,16.891153,-1.0,-1.0,101.155739,1.281526,-0.012889,0.020775,-1.001572
258453.221527,-0.13636881,-0.2026746,-9.827814960000001,0.004277,0.000429,0.00333,-46.455734,153.838791,-170.745361,60.187648,24.830094,12.914475,16.891153,-1.0,-1.0,101.155739,1.281526,-0.012884,0.02079,-1.001621
258453.241513,-0.1360647,-0.2026746,-9.82272357,0.002763,-0.001,0.002828,-46.525406,153.748566,-171.160461,60.187648,24.830094,12.914475,16.891153,-1.0,-1.0,101.155739,1.281526,-0.012879,0.020789,-1.001632
258453.2615,-0.12933504,-0.21031659,-9.82241946,0.002251,-0.000512,0.004247,-46.451309,153.885635,-171.079514,60.187648,24.830094,12.914475,16.891153,-1.0,-1.0,101.155739,1.281526,-0.012871,0.020781,-1.001566
258453.281486,-0.12139875000000001,-0.20327301,-9.821821049999999,0.003503,0.001799,0.00423,-46.554321,154.053558,-171.089401,60.187648,24.830094,12.914475,16.891153,-1.0,-1.0,101.155739,1.281526,-0.012873,0.020778,-1.001605
